bbox,cessation,country_id,deprecated,file_hash,fullname,geom_hash,geom_latitude,geom_longitude,id,inception,iso,iso_country,lastmodified,lbl_latitude,lbl_longitude,locality_id,name,parent_id,path,placetype,region_id,source,superseded_by,supersedes,wof_country
"-74.0056562492,40.7389609053,-74.004626181,40.7397682791",uuuu,85633793,,f3da04fde25e0e949e27cef9e11e60ed,,fe43b008c92124d9c8ee5dfaa092de85,40.739362,-74.005143,1108910615,uuuu,US,US,1490900130,0,0,85977539,Gansevoort St  & Hudson St,907214383,110/891/061/5/1108910615.geojson,intersection,85688543,mapzen,,,US
"-73.9534429947,40.7857369557,-73.9516542013,40.7873586137",uuuu,85633793,,3ffeb7751b6a0054dc0856aa9fb720be,,4f0463570a18e5b05e7d0f54161d2b5d,40.786547,-73.952549,1108910617,uuuu,US,US,1490900130,0,0,85977539,E 96th St  & Park Ave,907196173,110/891/061/7/1108910617.geojson,intersection,85688543,mapzen,,,US
"-73.9703628976,40.7697289692,-73.9675652958,40.7716547855",uuuu,85633793,,213a57f692d7367f439da11f3170e681,,a95b2134e4fbed9c8f1f1030cf78d493,40.770773,-73.968817,1108910613,uuuu,US,US,1490900130,0,0,85977539,5th Ave  & E 69th St,907214349,110/891/061/3/1108910613.geojson,intersection,85688543,mapzen,,,US
"-73.9912360285,40.7560299101,-73.9883462572,40.7584496928",uuuu,85633793,,45f33a294145eb0554e31558fb0e2bb9,,11132bf331fb9d039189503789db1d37,40.75724,-73.989794,1108910611,uuuu,US,US,1490900130,0,0,85977539,W 42nd St  & 8th Ave,85868039,110/891/061/1/1108910611.geojson,intersection,85688543,mapzen,,,US
"-73.944504572,40.8385028356,-73.9423550424,40.8400420841",uuuu,85633793,,f54e399ced6700d34e16ca6e4ee0bd3f,,5cd527339f30f854ec1cb407ed5dc009,40.839283,-73.94349,1108912727,uuuu,US,US,1490900130,0,0,85977539,Fort Washington Ave  & W 164th St,85854625,110/891/272/7/1108912727.geojson,intersection,85688543,mapzen,,,US
"-74.0011054933,40.7280160981,-73.9997276381,40.7294216164",uuuu,85633793,,52ca1e6910e88c3f03ec85c1f9009bc7,,241aa504d1063ae610fcbfe58437decd,40.728763,-74.000429,1108912723,uuuu,US,US,1490900130,0,0,85977539,Sullivan St  & Bleecker St,420529189,110/891/272/3/1108912723.geojson,intersection,85688543,mapzen,,,US
"-73.9919400659,40.7704132732,-73.9890200005,40.7728595385",uuuu,0,,dc7951831dfae561b1a751c6ccf39f5b,,e6a57ab4eee25dc4d76f89dcfec8c729,40.771651,-73.990502,1108912721,uuuu,US,US,1490900130,0,0,0,W 59th St  & 11th Ave,-1,110/891/272/1/1108912721.geojson,intersection,0,mapzen,,,US
"-73.9979283142,40.7280781239,-73.9965946329,40.7294655184",uuuu,85633793,,4a37d7ab07a3fbed6965d2232111e32f,,08d33ee37782feee43c20f69a18d6f1f,40.728729,-73.997237,1108912729,uuuu,US,US,1490900130,0,0,85977539,W 3rd St  & Wooster St Exd,420529189,110/891/272/9/1108912729.geojson,intersection,85688543,mapzen,,,US
"-73.9861677909,40.7632600108,-73.9837172668,40.7653569903",uuuu,85633793,,59618e921616432334d35e74b7ec7686,,083414511c2fd6a1cb2333f48531bccd,40.764304,-73.984924,1108914355,uuuu,US,US,1490900130,0,0,85977539,W 53rd St  & 8th Ave,85882233,110/891/435/5/1108914355.geojson,intersection,85688543,mapzen,,,US
"-73.9817383377,40.7669657337,-73.9798488203,40.7684655286",uuuu,85633793,,b2ed785b3e8f14326ba78fb5a110e256,,c3250077945d6c75def35a38cad4c3b8,40.767784,-73.980777,1108914357,uuuu,US,US,1490900130,0,0,85977539,Columbus Cir  & W 59 St,85882233,110/891/435/7/1108914357.geojson,intersection,85688543,mapzen,,,US
"-74.0107121647,40.7092337656,-74.0094236462,40.7104961055",uuuu,85633793,,28f1539a7589b99c884a40343be4d80a,,43c72164e3dfe14149f6cb5f98098f2d,40.709841,-74.010084,1108914353,uuuu,US,US,1490900130,0,0,85977539,Maiden Ln  & Broadway,85865711,110/891/435/3/1108914353.geojson,intersection,85688543,mapzen,,,US
"-73.9707208831,40.7560702007,-73.9686843205,40.757858912",uuuu,85633793,,fc08f8497f418539c8783df7d822bd8b,,74176c886912bd8d3e3d1ea126d992b4,40.756972,-73.969708,1108914351,uuuu,US,US,1490900130,0,0,85977539,E 52nd St  & 3rd Ave,907215757,110/891/435/1/1108914351.geojson,intersection,85688543,mapzen,,,US
"-73.987540843,40.7613417453,-73.9850249099,40.7634839568",uuuu,85633793,,5f54659359dc066236053cbd8e3ebcf5,,ef13a08f3cae3e2c73929c03f51f4e26,40.762408,-73.986269,1108914359,uuuu,US,US,1490900130,0,0,85977539,W 50th St  & 8th Ave,85882233,110/891/435/9/1108914359.geojson,intersection,85688543,mapzen,,,US
"-73.9747945317,40.7940805733,-73.9731895051,40.795451862",uuuu,85633793,,9296f934f322b2da4a6406d454761880,,575216a375a6b5802264acd9159cd4ed,40.794757,-73.973938,1108912255,uuuu,US,US,1490900130,0,0,85977539,W End Ave  & W 95th St,85853285,110/891/225/5/1108912255.geojson,intersection,85688543,mapzen,,,US
"-73.9476596429,40.8420008271,-73.9423250987,40.8452403511",uuuu,85633793,,9cab0b35a5079399201593acd5cd8b18,,eaed8420d6096476945ca16c256d94ed,40.843494,-73.944461,1108912253,uuuu,US,US,1490900130,0,0,85977539,Haven Ave  & W 169th St,85854625,110/891/225/3/1108912253.geojson,intersection,85688543,mapzen,,,US
"-73.9908104319,40.7716749321,-73.9881052329,40.7738760402",uuuu,85633793,,17333cc47230c2fe225493aaed9b10ad,,228d816b0b29987b6fe5ab90bd5954f6,40.772795,-73.989444,1108912251,uuuu,US,US,1490900130,0,0,85977539,W End Ave  & W 61st St,85853285,110/891/225/1/1108912251.geojson,intersection,85688543,mapzen,,,US
"-73.957612456,40.8122505952,-73.9555321642,40.814385081",uuuu,85633793,,268da8b325652db09c2d620a798d2c18,,0d90a12d45f986be173bb3afc88c042f,40.813456,-73.956458,1108912259,uuuu,US,US,1490900130,0,0,85977539,W 125th St  & Amsterdam Ave,85869313,110/891/225/9/1108912259.geojson,intersection,85688543,mapzen,,,US
"-73.9478721006,40.8056606311,-73.9455350536,40.8076645446",uuuu,85633793,,09df1aac76911d01c1e9e1bd42710769,,93761ad477ac58865f34b83006aa33ef,40.806652,-73.946689,1108912325,uuuu,US,US,1490900130,0,0,85977539,W 123rd St  & Malcolm X Blvd,85865555,110/891/232/5/1108912325.geojson,intersection,85688543,mapzen,,,US
"-73.9441918712,40.8154120561,-73.9413209794,40.817796234",uuuu,85633793,,70d184b7c4436c292eafcb896d109e80,,4b8e57795e7f39b041dfed04d7604333,40.816604,-73.942759,1108912327,uuuu,US,US,1490900131,0,0,85977539,W 137th St  & Adam Clayton Powell Jr Blvd,85865555,110/891/232/7/1108912327.geojson,intersection,85688543,mapzen,,,US
"-73.9394363941,40.8049200455,-73.9376617853,40.8065185451",uuuu,85633793,,e6f2150a67de0f9374f5347b43807923,,26f50229cab66d2a65d96e20a1e95ec9,40.805716,-73.938551,1108912323,uuuu,US,US,1490900131,0,0,85977539,E 126th St  & Park Ave,85865689,110/891/232/3/1108912323.geojson,intersection,85688543,mapzen,,,US
"-73.9543472234,40.8221332386,-73.9525629548,40.8235799486",uuuu,85633793,,ce30ba1b97c49bddcaf2bcb52e96c52c,,91483761fcfbaee63f1f28bcff0bb7af,40.822816,-73.953446,1108912321,uuuu,US,US,1490900131,0,0,85977539,W 139th St  & Broadway,85869313,110/891/232/1/1108912321.geojson,intersection,85688543,mapzen,,,US
"-73.9953181756,40.7298428875,-73.9942140391,40.7309222306",uuuu,85633793,,886fafcbf285f8979dba0284b2b5fcc3,,9980aea884b6cfce11fe5551d81b22ad,40.730403,-73.994758,1108910155,uuuu,US,US,1490900131,0,0,85977539,Waverly Pl  & Greene St,420529189,110/891/015/5/1108910155.geojson,intersection,85688543,mapzen,,,US
"-74.0029111843,40.720979321,-74.0015979845,40.7222798433",uuuu,85633793,,64eedbe5dbea67f8952f2731dcdc62fa,,df0cfafd0f4e626f1144ab4a03cc0653,40.721588,-74.002245,1108910157,uuuu,US,US,1490900131,0,0,85977539,Grand St  & Greene St,85865687,110/891/015/7/1108910157.geojson,intersection,85688543,mapzen,,,US
"-74.0060877056,40.7372055425,-74.005257412,40.7379095273",uuuu,85633793,,122c2343fc0bceeb0b26eafc84d23ecc,,6c0fb3c8c9f764850a097b62c2643fd2,40.737553,-74.005682,1108910153,uuuu,US,US,1490900131,0,0,85977539,W 12th St  & Hudson St,85856577,110/891/015/3/1108910153.geojson,intersection,85688543,mapzen,,,US
"-74.0104246548,40.7255317725,-74.0094583167,40.7274395802",uuuu,85633793,,166a9e9c6fa3549de4175d2ae1305ae8,,20d6a7ac8b963b4e0d70c553f8ce9fe2,40.726323,-74.009966,1108910159,uuuu,US,US,1490900131,0,0,85977539,Washington St  & Spring St,85865687,110/891/015/9/1108910159.geojson,intersection,85688543,mapzen,,,US
"-73.9510490727,40.8384803903,-73.944486087,40.8429585012",uuuu,85633793,,f8d525c0034bff410c5bdd37e2840415,,8f02a942881db7b49812e2a521ab247c,40.840509,-73.947405,1108912965,uuuu,US,US,1490900131,0,0,85977539,W 163rd St  & Riverside Dr,85854625,110/891/296/5/1108912965.geojson,intersection,85688543,mapzen,,,US
"-73.9343159167,40.8573359926,-73.9324165478,40.8594766496",uuuu,85633793,,5418c923bbf33410bee6cfc18d5e64c8,,381c5a3cb5312516894e3c538140032a,40.858272,-73.933166,1108912967,uuuu,US,US,1490900131,0,0,85977539,Bennett Ave  & W 192nd St,907214331,110/891/296/7/1108912967.geojson,intersection,85688543,mapzen,,,US
"-73.9610023089,40.8178176066,-73.9603526618,40.8186134302",uuuu,85633793,,6df131b15deb652decf58e95e5683c26,,fbd866c41aded1346d4e8fb1033ed568,40.818172,-73.960618,1108912963,uuuu,US,US,1490900131,0,0,85977539,W 125th St  & 12th Ave,85869313,110/891/296/3/1108912963.geojson,intersection,85688543,mapzen,,,US
"-73.9427616795,40.8263887004,-73.9418884731,40.8276305935",uuuu,85633793,,d1de3e33735d896533350f13ea966070,,23a03d5cc8d2404ebcb26c279cca75b3,40.827058,-73.942331,1108912961,uuuu,US,US,1490900131,0,0,85977539,St Nicholas Pl  & W 150th St,907215743,110/891/296/1/1108912961.geojson,intersection,85688543,mapzen,,,US
"-73.9450232135,40.833489753,-73.9429894421,40.8354083061",uuuu,85633793,,440bcffd430dce8220b35703a2822d40,,6bcada6195e85db876aa0728da67bb04,40.834423,-73.944055,1108912969,uuuu,US,US,1490900131,0,0,85977539,Broadway  & W 158th St,85854625,110/891/296/9/1108912969.geojson,intersection,85688543,mapzen,,,US
"-73.9892017108,40.741751819,-73.9881798027,40.7426914383",uuuu,85633793,,125f2cd508d78bc67bad604b15b0e75c,,d869eb66f28cd0cdad3c172b83d1bd28,40.742166,-73.98875,1108912745,uuuu,US,US,1490900131,0,0,85977539,Broadway  & 5th Ave,85869245,110/891/274/5/1108912745.geojson,intersection,85688543,mapzen,,,US
"-73.9472719621,40.8312945663,-73.9443778419,40.8337961055",uuuu,85633793,,1f541c104aa77ea5a0746647bc75f825,,2f0e8634175e96acdb2119b55c12f68b,40.832538,-73.945837,1108912747,uuuu,US,US,1490900131,0,0,85977539,Broadway  & W 155th St,85869313,110/891/274/7/1108912747.geojson,intersection,85688543,mapzen,,,US
"-73.9744005669,40.7884216568,-73.9721722264,40.7903418418",uuuu,85633793,,5eaf1bb059304d43da3187cc4d09d922,,ae0999c220e2cd409ea9de2165393244,40.789395,-73.973303,1108912741,uuuu,US,US,1490900131,0,0,85977539,Amsterdam Ave  & W 89th St,85853285,110/891/274/1/1108912741.geojson,intersection,85688543,mapzen,,,US
"-73.9626214438,40.7833184198,-73.9576803123,40.7871195068",uuuu,85633793,,4a0f84ecab87cea1035f455acfa96571,,8e8b22e025e94d3b354680fee068c4ea,40.785264,-73.960167,1108912749,uuuu,US,US,1490900131,0,0,85977539,E 90th St  & 5th Ave,420529187,110/891/274/9/1108912749.geojson,intersection,85688543,mapzen,,,US
"-73.9557572142,40.8120413883,-73.9541447083,40.8142522913",uuuu,85633793,,76820d82bb68cb3e2d15058cfc4824fb,,0a3857de67a225f579ce10530b9ba824,40.813239,-73.954937,1108911885,uuuu,US,US,1490900131,0,0,85977539,W 127th St  & W 126th St,85869313,110/891/188/5/1108911885.geojson,intersection,85688543,mapzen,,,US
"-73.9278185431,40.8564146874,-73.9257863667,40.8582829875",uuuu,85633793,,67becedb21471ae0ee3bcfb3e6037253,,2ec244781351742def8eb64a2b45d06b,40.857501,-73.926927,1108911887,uuuu,US,US,1490900131,0,0,85977539,Fort George Ave  & Audubon Ave,907212535,110/891/188/7/1108911887.geojson,intersection,85688543,mapzen,,,US
"-73.941534332,40.804909222,-73.9397540325,40.8065448941",uuuu,85633793,,8b12e6783d842d75f44dbb62825ddd3f,,c75bb5ab03c736768af67600bbff6563,40.80573,-73.940644,1108911883,uuuu,US,US,1490900131,0,0,85977539,Madison Ave  & E 125th St,85865689,110/891/188/3/1108911883.geojson,intersection,85688543,mapzen,,,US
"-73.9884377185,40.7219559751,-73.9872529861,40.7233743931",uuuu,85633793,,4914b7bb148525657e1c09af8028fea2,,45a994b1b1ad91f39d77b084f6600bb8,40.722665,-73.987852,1108911881,uuuu,US,US,1490900131,0,0,85977539,E Houston St  & Orchard St,85831563,110/891/188/1/1108911881.geojson,intersection,85688543,mapzen,,,US
"-73.9373279031,40.8238345348,-73.9319873162,40.8264675517",uuuu,85633793,,24a4395270521df4cb5d3b5fb4158c6c,,c87628b01a9150c710e5429157066091,40.825137,-73.934917,1108911889,uuuu,US,US,1490900131,0,0,85977539,7th Ave  & W 151st St,85865555,110/891/188/9/1108911889.geojson,intersection,85688543,mapzen,,,US
"-73.9376459365,40.8013772801,-73.9355727736,40.8031847259",uuuu,85633793,,d2d02de5f7d723cdc0e16f98ea584f9e,,bd363557896d1b4dbf05924e2f9bd663,40.802287,-73.936618,1108911055,uuuu,US,US,1490900131,0,0,85977539,3rd Ave  & E 123rd St,85865689,110/891/105/5/1108911055.geojson,intersection,85688543,mapzen,,,US
"-73.9580962033,40.7793633366,-73.956306234,40.7809889576",uuuu,85633793,,8d56782572967028ed7730745144b8f6,,e2b6087ab36223d0ed26f3535638dd71,40.780176,-73.957201,1108911057,uuuu,US,US,1490900131,0,0,85977539,E 86th St  & Park Ave,907196173,110/891/105/7/1108911057.geojson,intersection,85688543,mapzen,,,US
"-73.9994511935,40.744749867,-73.9965720559,40.7471438521",uuuu,85633793,,e876e291ffb524efdb9811d2a46ce017,,8f2056dfa3945bdd28adf8400ebd6341,40.745945,-73.998014,1108911053,uuuu,US,US,1490900131,0,0,85977539,W 24th St  & 8th Ave,85810589,110/891/105/3/1108911053.geojson,intersection,85688543,mapzen,,,US
"-73.9917495842,40.7604213442,-73.9888776461,40.7627918245",uuuu,85633793,,ee356fbd5310282301472c63752abf51,,17602ffc2c9b18886fb8a04799b290e3,40.761607,-73.990312,1108911059,uuuu,US,US,1490900131,0,0,85977539,9th Ave  & W 47th St,85882233,110/891/105/9/1108911059.geojson,intersection,85688543,mapzen,,,US
"-73.9882471573,40.7523682044,-73.986453504,40.7534615076",uuuu,85633793,,9aacb190282e55a7af1fb131510f8a0a,,a441edb8f7b10a421418a55fb0a9f4d7,40.752901,-73.987356,1108912495,uuuu,US,US,1490900131,0,0,85977539,Broadway  & W 38th St,907212749,110/891/249/5/1108912495.geojson,intersection,85688543,mapzen,,,US
"-73.9459543524,40.7781024877,-73.9434865271,40.7801026298",uuuu,85633793,,d582b7d88739c6946223723443267432,,069d2a00b6342f6b2c0f1adeeb20083d,40.779102,-73.944742,1108912497,uuuu,US,US,1490900131,0,0,85977539,E 91st St  & York Ave,907215779,110/891/249/7/1108912497.geojson,intersection,85688543,mapzen,,,US
"-73.9788350685,40.7414034442,-73.9761693834,40.7437268857",uuuu,85633793,,d30b31652b3a846180e4dc762853befb,,89d5e9f768eed467627338293bafba4b,40.742542,-73.977456,1108912493,uuuu,US,US,1490900131,0,0,85977539,2nd Ave  & E 30th St,907189665,110/891/249/3/1108912493.geojson,intersection,85688543,mapzen,,,US
"-73.9432363984,40.8116340828,-73.9408097957,40.8140093639",uuuu,85633793,,03319f8e6cc50d01107ca995223ccaa4,,4e632b102f76e83f51fd4dc2807c1f75,40.81289,-73.941922,1108912499,uuuu,US,US,1490900131,0,0,85977539,W 133rd St  & Malcolm X Blvd,85865555,110/891/249/9/1108912499.geojson,intersection,85688543,mapzen,,,US
"-74.0054406942,40.7333924339,-74.0037469208,40.7345472214",uuuu,85633793,,865990d69db31e05d655fe9e4f93a68b,,fd00162dd235fd4c4ae683368e60d853,40.734001,-74.004599,1108912855,uuuu,US,US,1490900131,0,0,85977539,W 10th St  & Bleecker St,85856577,110/891/285/5/1108912855.geojson,intersection,85688543,mapzen,,,US
"-73.9862015623,40.7325925101,-73.9847226707,40.7341107649",uuuu,85633793,,34aac6d7633a6a81e683e06f2232507e,,7d8673800f751e05b0114be25e22f61f,40.733294,-73.985532,1108912857,uuuu,US,US,1490900131,0,0,85977539,E 15th St  & Rutherford Pl,85865705,110/891/285/7/1108912857.geojson,intersection,85688543,mapzen,,,US
"-73.9413479122,40.8023319983,-73.9395626353,40.8039308909",uuuu,85633793,,9823dc913a51f5d12c3028ab2bba88f7,,7a7753e9b87c9a46a445be2e1a212c4d,40.803131,-73.940454,1108912853,uuuu,US,US,1490900131,0,0,85977539,E 122nd St  & Park Ave,85865689,110/891/285/3/1108912853.geojson,intersection,85688543,mapzen,,,US
"-73.9764294622,40.7528955811,-73.9750793764,40.7542593857",uuuu,85633793,,4a0aa9533b6b3ffe1d6c88d6e7ed3898,,0e08d0fad6f8f5cdc158dd8f9eca84b8,40.753565,-73.975739,1108912859,uuuu,US,US,1490900131,0,0,85977539,de Pew Pl  & E 45th St,907215785,110/891/285/9/1108912859.geojson,intersection,85688543,mapzen,,,US
"-74.0208895705,40.684656,-74.0179126947,40.6871605048",uuuu,85633793,,b50d46d18e299058604cb7e15c3edb65,,125f936e9495fff8b6b3817bd4e5eae9,40.685641,-74.019491,1108913035,uuuu,US,US,1490900131,0,0,85977539,Craig Rd S  & Icarus Rd,907131741,110/891/303/5/1108913035.geojson,intersection,85688543,mapzen,,,US
"-73.9730341671,40.7588884262,-73.9712696518,40.760471017",uuuu,85633793,,92a06a709ea26533b6440e0522bee90c,,d0d6f62a9f073d9a6f96cb51b283be22,40.759681,-73.972151,1108913037,uuuu,US,US,1490900131,0,0,85977539,E 54th St  & Park Ave,907215785,110/891/303/7/1108913037.geojson,intersection,85688543,mapzen,,,US
"-74.0055037513,40.7055261146,-74.0046855087,40.7064564314",uuuu,85633793,,f9b8167958472ac95a22b64afaeecd6b,,114fb6128170e5a473da54b0e6337ea4,40.706007,-74.005097,1108913033,uuuu,US,US,1490900131,0,0,85977539,Fletcher St  & Front St,85865711,110/891/303/3/1108913033.geojson,intersection,85688543,mapzen,,,US
"-74.026017,40.7510610142,-74.0077832688,40.7597146621",uuuu,85633793,,d33bd6bfd1851b1b683dca3903836f35,,8672a6b75ec6b2cd4ebfdc8754d12706,40.755336,-74.017869,1108913039,uuuu,US,US,1490900131,0,0,85977539,Lincoln Hwy  & W 26th St,85810589,110/891/303/9/1108913039.geojson,intersection,85688543,mapzen,,,US
"-73.98086331,40.7793654441,-73.9787738,40.7812559741",uuuu,85633793,,16e91c1422ef85af850db913a9653331,,4a9f82fc799687ca9b34a43d76164830,40.780303,-73.979847,1108911467,uuuu,US,US,1490900131,0,0,85977539,W 75th St  & Amsterdam Ave,85853285,110/891/146/7/1108911467.geojson,intersection,85688543,mapzen,,,US
"-73.9672419846,40.7639489645,-73.9654834484,40.76552447",uuuu,85633793,,8a0d3fff2ccc2ba3f474cb007680fd0d,,55af20be2ccb02dc40c43dc274d7ba99,40.764736,-73.966363,1108911463,uuuu,US,US,1490900131,0,0,85977539,E 63rd St  & Lexington Ave,907214349,110/891/146/3/1108911463.geojson,intersection,85688543,mapzen,,,US
"-74.0127128753,40.8209624192,-73.9578451749,40.8666390973",uuuu,85633793,,ef80d22a5c630edab81357767ca6a4aa,,0a6825fc465c0074daed507df1becdbe,40.841002,-73.979806,1108911461,uuuu,US,US,1490900131,0,0,85977539,W 135th St  & Marginal St,85869313,110/891/146/1/1108911461.geojson,intersection,85688543,mapzen,,,US
"-73.976733269,40.7881747404,-73.9751528503,40.7896898862",uuuu,85633793,,47272020a870beb47f3f96814f9b341f,,d88f354e9964490771fb216bf1f5289e,40.788936,-73.975945,1108911469,uuuu,US,US,1490900131,0,0,85977539,Broadway  & W 87th St,85853285,110/891/146/9/1108911469.geojson,intersection,85688543,mapzen,,,US
"-73.9567352643,40.767463255,-73.954331655,40.7695275141",uuuu,85633793,,be93ce3dae6a56e821b51e70f12996a1,,ba714b566c318e9c891e67d8e1cd554d,40.768492,-73.955534,1108911205,uuuu,US,US,1490900131,0,0,85977539,1st Ave  & E 73rd St,907214349,110/891/120/5/1108911205.geojson,intersection,85688543,mapzen,,,US
"-74.0035520131,40.7302507717,-74.0020446983,40.7314751958",uuuu,85633793,,33ab43eb30d734f6f26c263df94dcc3f,,795a8a426fdd4701ef03a7d984811cb9,40.730822,-74.002787,1108911207,uuuu,US,US,1490900131,0,0,85977539,Leroy St  & Bleecker St,85856577,110/891/120/7/1108911207.geojson,intersection,85688543,mapzen,,,US
"-73.9661284681,40.7903835447,-73.96362555,40.7928848977",uuuu,85633793,,2b3eb08114d2318a8f205fbbfd5fd18e,,6aef82b0a86bfd98af9486f0947a5507,40.791713,-73.964766,1108911203,uuuu,US,US,1490900131,0,0,85977539,Central Park W  & W 96th St,420529187,110/891/120/3/1108911203.geojson,intersection,85688543,mapzen,,,US
"-74.0046373921,40.7070651439,-74.0035845968,40.707875307",uuuu,85633793,,838dc5b8d1634a1249449c4f02cb19bc,,0115230154ab76a5e970e943d4336d0f,40.707471,-74.004107,1108911201,uuuu,US,US,1490900131,0,0,85977539,Pearl St  & Water St,907215463,110/891/120/1/1108911201.geojson,intersection,85688543,mapzen,,,US
"-73.9935337643,40.7247824038,-73.9925597199,40.7265235134",uuuu,85633793,,3506ddd3744ecd3bfa0ae38cd8a2eb6e,,d33924824b605e3437223df300e8f0b1,40.725603,-73.993,1108911209,uuuu,US,US,1490900131,0,0,85977539,Elizabeth St  & Bleecker St,85865699,110/891/120/9/1108911209.geojson,intersection,85688543,mapzen,,,US
"-73.9384570547,40.7966211462,-73.9360590098,40.7986762384",uuuu,85633793,,163a3ad5ee6a8233804a811f01fc2944,,425120b823a575f7885a97354000f2da,40.797647,-73.937261,1108912115,uuuu,US,US,1490900131,0,0,85977539,2nd Ave  & E 117th St,85865689,110/891/211/5/1108912115.geojson,intersection,85688543,mapzen,,,US
"-73.9860877405,40.7272213514,-73.9837310245,40.7292126856",uuuu,85633793,,a89a7255217b740aacb1b0d5660dec30,,6a141f137cb949cf4018c2c17831d69b,40.728215,-73.984908,1108912117,uuuu,US,US,1490900131,0,0,85977539,E 9th St  & 1st Ave,85816887,110/891/211/7/1108912117.geojson,intersection,85688543,mapzen,,,US
"-73.9755333094,40.736160812,-73.9729797743,40.7375346892",uuuu,85633793,,0fd0d9844ad783ce391b7784cd047bec,,8a3a13eaac5a10faebb10185388c0352,40.736634,-73.974491,1108912111,uuuu,US,US,1490900131,0,0,85977539,E 25th St  & F D R Dr,907189665,110/891/211/1/1108912111.geojson,intersection,85688543,mapzen,,,US
"-73.9465091592,40.7892651909,-73.9444693752,40.7910463314",uuuu,85633793,,6265ce5c6c6943741fa116f60e1ef612,,cfcbd14666bbfe8da840f24035d4e240,40.790162,-73.945497,1108912119,uuuu,US,US,1490900131,0,0,85977539,3rd Ave  & E 104th St,85865689,110/891/211/9/1108912119.geojson,intersection,85688543,mapzen,,,US
"-74.0088333766,40.7290879054,-74.0076630317,40.7300893959",uuuu,85633793,,355c521153de8f634848546d71c65ba6,,011593040606fd996c2d2816d23ec92d,40.72959,-74.008249,1108914195,uuuu,US,US,1490900131,0,0,85977539,Clarkson St  & Greenwich St,85856577,110/891/419/5/1108914195.geojson,intersection,85688543,mapzen,,,US
"-73.9394614387,40.8330218991,-73.9369720772,40.8351578602",uuuu,85633793,,d5e48b0c741ba7211a174590cae61b6a,,cac22be6a1c9f6715ef8ffec3e09cf43,40.834096,-73.938212,1108914197,uuuu,US,US,1490900131,0,0,85977539,Sylvan Ter  & Jumel Ter,85854625,110/891/419/7/1108914197.geojson,intersection,85688543,mapzen,,,US
"-73.9755311422,40.7925971886,-73.9739023574,40.7942435536",uuuu,85633793,,c75c01bc04ee25ce77ec21f5dd433b55,,dd33881a814d0cdd4ed8b4783362ff3d,40.793388,-73.974702,1108914193,uuuu,US,US,1490900131,0,0,85977539,W End Ave  & W 93rd St,85853285,110/891/419/3/1108914193.geojson,intersection,85688543,mapzen,,,US
"-73.9905897828,40.7145001287,-73.9891459898,40.7155406585",uuuu,85633793,,f14c5cb5fe7c1debb031430fd4c38b5f,,e821b48c9af108527ca1fd3715c0d390,40.715001,-73.989908,1108914191,uuuu,US,US,1490900131,0,0,85977539,Essex St  & Rutgers St,85810885,110/891/419/1/1108914191.geojson,intersection,85688543,mapzen,,,US
"-73.9547601105,40.8213956948,-73.9531776479,40.8229935513",uuuu,85633793,,0404660979a2b75136be7c8f9c020903,,2f7d2a69abfe31a0e57fcc0251e906ac,40.822217,-73.95396,1108914199,uuuu,US,US,1490900131,0,0,85977539,W 138th St  & Broadway,85869313,110/891/419/9/1108914199.geojson,intersection,85688543,mapzen,,,US
"-73.9352700694,40.8011261195,-73.9328336935,40.8030928834",uuuu,85633793,,85322c7c0ef5cd0f497ac2fd7dbfeba3,,6a3914d1becae9c518f149c7942ff21c,40.802105,-73.934074,1108910875,uuuu,US,US,1490900131,0,0,85977539,2nd Ave  & E 124th St,85865689,110/891/087/5/1108910875.geojson,intersection,85688543,mapzen,,,US
"-74.0022472126,40.7151143508,-74.0009452569,40.7164362102",uuuu,85633793,,6e5858e63d34bfd869e1debba2edbe6d,,056dc59d9fd5420e7bf241ad067989db,40.715839,-74.001577,1108910877,uuuu,US,US,1490900131,0,0,85977539,Centre St  & Leonard St,85865569,110/891/087/7/1108910877.geojson,intersection,85688543,mapzen,,,US
"-73.99142642,40.7343257071,-73.9902094679,40.7355299893",uuuu,85633793,,4f8a870107730f22306bdac4abfde4fe,,ebe613e98d431938e8c46c53dcfe820a,40.734881,-73.990788,1108910873,uuuu,US,US,1490900131,0,0,85977539,E 14th St  & Broadway,907215761,110/891/087/3/1108910873.geojson,intersection,85688543,mapzen,,,US
"-73.9955692953,40.7310724846,-73.9943094296,40.7324040574",uuuu,85633793,,74b1cc94af9436ad828bb5148d8bff71,,8e103dc90238551a52c18d5d1aa801cc,40.731772,-73.994916,1108910879,uuuu,US,US,1490900131,0,0,85977539,University Pl  & E 8th St,420529189,110/891/087/9/1108910879.geojson,intersection,85688543,mapzen,,,US
"-73.9841534056,40.7834365206,-73.9824385991,40.7851014982",uuuu,85633793,,0294870845f90cb26d4e7f65cf9d6f08,,17fc2e1b1697d1e615e4968d2eba71f0,40.784298,-73.983238,1108910915,uuuu,US,US,1490900131,0,0,85977539,W 78th St  & Riverside Dr,85853285,110/891/091/5/1108910915.geojson,intersection,85688543,mapzen,,,US
"-73.9783525627,40.718259475,-73.9764972848,40.7205887922",uuuu,85633793,,21c9a373a37635bc8200ea6aabbde028,,a782fa5916ebeb6b516dec87cf8db19f,40.719606,-73.977579,1108910917,uuuu,US,US,1490900131,0,0,85977539,Lillian Wald Dr  & E Houston St,907189647,110/891/091/7/1108910917.geojson,intersection,85688543,mapzen,,,US
"-73.9406301248,40.8006009705,-73.9392971911,40.8019781108",uuuu,85633793,,aea680868aa75cdb1aa289a21b6b245b,,9200fe548becfa00da929bc11bc082f1,40.801322,-73.93995,1108910913,uuuu,US,US,1490900131,0,0,85977539,Lexington Ave  & E 120th St,85865689,110/891/091/3/1108910913.geojson,intersection,85688543,mapzen,,,US
"-73.9793425482,40.7366085917,-73.976801737,40.7383602754",uuuu,85633793,,afbafad471fe6bfc5977f5b7cf84091d,,049dd1aa871b2fa85e7ed93afcd0ea7d,40.737543,-73.978108,1108910911,uuuu,US,US,1490900131,0,0,85977539,1st Ave  & E 24th St,907189665,110/891/091/1/1108910911.geojson,intersection,85688543,mapzen,,,US
"-73.9566714018,40.8025479306,-73.9544147229,40.8045013754",uuuu,85633793,,dbd23247314b7c9aff7fb783b6d59509,,2d2d306fdad2acb38d89969d013a1ffa,40.80354,-73.955557,1108910919,uuuu,US,US,1490900131,0,0,85977539,Frederick Douglass Blvd  & W 115th St,85865555,110/891/091/9/1108910919.geojson,intersection,85688543,mapzen,,,US
"-73.9397872105,40.8404773063,-73.9387487203,40.8413430989",uuuu,85633793,,40e68eafe1aef19cc1642bc983ce9eb2,,e7bcc18d052ef6419b4e0e45c37c0cca,40.84091,-73.939268,1108912515,uuuu,US,US,1490900131,0,0,85977539,St Nicholas Ave  & W 168th St,85854625,110/891/251/5/1108912515.geojson,intersection,85688543,mapzen,,,US
"-74.0058161593,40.712534358,-74.0040762583,40.7142096673",uuuu,85633793,,33d3d8507a789b08c9b333485617bca2,,76fea61b4634c34dda96d3a382f3d934,40.713287,-74.004938,1108912517,uuuu,US,US,1490900131,0,0,85977539,Elk St  & Chambers St,85865569,110/891/251/7/1108912517.geojson,intersection,85688543,mapzen,,,US
"-73.9450936484,40.824126708,-73.94329969,40.8254440989",uuuu,85633793,,78a20f211fff02d8a233d5de023f28fa,,3198391f4976bdd2b90993506a0c9c84,40.824741,-73.9443,1108912513,uuuu,US,US,1490900131,0,0,85977539,St Nicholas Ave  & W 146th St,907215743,110/891/251/3/1108912513.geojson,intersection,85688543,mapzen,,,US
"-73.9643593969,40.8030649546,-73.9616531595,40.8054374963",uuuu,85633793,,ca783f71d508c8f1687cd3d7d8f37fac,,10d804c7d339d158319f8344530d6964,40.804255,-73.962935,1108912511,uuuu,US,US,1490900131,0,0,85977539,Amsterdam Ave  & W 112th St,85869509,110/891/251/1/1108912511.geojson,intersection,85688543,mapzen,,,US
"-73.9182994179,40.8761196199,-73.9115914753,40.877828",uuuu,85633793,,bdc4492b09b46dd4cd00db5eec27da2d,,7218bebd45add2fa27be2fa232ccd42f,40.877079,-73.914684,1108912519,uuuu,US,US,1490900131,0,0,85977539,Terrace View Ave  & Teunissen Pl,85865673,110/891/251/9/1108912519.geojson,intersection,85688543,mapzen,,,US
"-73.9847745224,40.7495632878,-73.9823007822,40.7516494734",uuuu,85633793,,39a603476546a675a5d5598f90d6da69,,30a719ab4a5913b96ac8c35818986b65,40.750596,-73.983522,1108912277,uuuu,US,US,1490900131,0,0,85977539,W 37th St  & 5th Ave,907212749,110/891/227/7/1108912277.geojson,intersection,85688543,mapzen,,,US
"-73.9393377118,40.839161003,-73.9379794583,40.8405129636",uuuu,85633793,,c32e80a4c5b60c81081ca40d7ceaaef6,,17bea8b2b0c1bde8875ba86a569cac5b,40.839809,-73.938667,1108912273,uuuu,US,US,1490900131,0,0,85977539,W 167th St  & Audubon Ave,85854625,110/891/227/3/1108912273.geojson,intersection,85688543,mapzen,,,US
"-73.9426431982,40.8375071789,-73.9407399188,40.8394101424",uuuu,85633793,,7b106cf7426c3c6d675d87b51a601afd,,58acebe45de0450ff5c7b4c77e959d15,40.838476,-73.94169,1108912271,uuuu,US,US,1490900131,0,0,85977539,Broadway  & W 164th St,85854625,110/891/227/1/1108912271.geojson,intersection,85688543,mapzen,,,US
"-73.97876137,40.7304295432,-73.9764415271,40.7326242537",uuuu,85633793,,e8828e2ae12a38d290fadb7e575faa8e,,010f93828b2f9c7d6d458037d34979bc,40.731571,-73.97764,1108912279,uuuu,US,US,1490900131,0,0,85977539,Stuyvesant Walk  & Stuyvesant Oval,85851295,110/891/227/9/1108912279.geojson,intersection,85688543,mapzen,,,US
"-73.9885574277,40.7647993162,-73.9856913313,40.7671903378",uuuu,85633793,,11ccb016d219d2e85fac4ac8eea8f7e5,,869adeb742365ebfceb3a261226305fc,40.765995,-73.987127,1108913145,uuuu,US,US,1490900131,0,0,85977539,9th Ave  & W 54th St,85882233,110/891/314/5/1108913145.geojson,intersection,85688543,mapzen,,,US
"-73.9920705729,40.7497879179,-73.9892487762,40.7522049925",uuuu,85633793,,b45e43ac080d9dfd114c4ab7acd51e6e,,1389d5a205b73cba336c4ffa65258a1a,40.751002,-73.990642,1108913147,uuuu,US,US,1490900131,0,0,85977539,W 34th St  & Penn Plz,907212749,110/891/314/7/1108913147.geojson,intersection,85688543,mapzen,,,US
"-73.9478131133,40.7796904606,-73.9454455313,40.7817337662",uuuu,85633793,,2811f0138a9bcce25bcb789828eb8d31,,0c76d96f18b95ae345e3518af181dd88,40.780712,-73.946621,1108913143,uuuu,US,US,1490900131,0,0,85977539,1st Ave  & E 92nd St,907215779,110/891/314/3/1108913143.geojson,intersection,85688543,mapzen,,,US
"-73.9929580686,40.7382974391,-73.9905902549,40.7403832078",uuuu,85633793,,0a364043bb19183a2712a48067b4dd76,,675284b0176f7c20c3f1c38967e3fd10,40.739356,-73.991747,1108913141,uuuu,US,US,1490900131,0,0,85977539,5th Ave  & W 19th St,85810589,110/891/314/1/1108913141.geojson,intersection,85688543,mapzen,,,US
"-73.9468997282,40.8182927366,-73.945747011,40.8194750558",uuuu,85633793,,9850b3fad6ba9f347a04d9efe5b5025a,,d9e20f12a289d15036c32e89db3c4175,40.81888,-73.946336,1108913149,uuuu,US,US,1490900131,0,0,85977539,W 138th St  & Edgecombe Ave,85869313,110/891/314/9/1108913149.geojson,intersection,85688543,mapzen,,,US
"-73.9982866825,40.7249897411,-73.9969367717,40.7265758412",uuuu,85633793,,a818614eedbffa8b74406cefbfbcfa82,,7bfe4ec1298341a27869752539d17bb6,40.725772,-73.997602,1108911665,uuuu,US,US,1490900131,0,0,85977539,W Houston St  & Mercer St,420529189,110/891/166/5/1108911665.geojson,intersection,85688543,mapzen,,,US
"-73.9441812824,40.8393270009,-73.9417482679,40.8414736064",uuuu,85633793,,686f8a4a5faa357240e052cc1f0f7919,,694ebaf36ad480c6e7a800a5bff0490b,40.840385,-73.94289,1108911667,uuuu,US,US,1490900131,0,0,85977539,W 165th St  & Fort Washington Ave,85854625,110/891/166/7/1108911667.geojson,intersection,85688543,mapzen,,,US
"-73.9869675643,40.7380556834,-73.9858627428,40.7393077041",uuuu,85633793,,7416e3390c953b228b70a2b8ad1f143a,,e8fd820970da2ddb5ebbb842a01b2a1d,40.738672,-73.986368,1108911661,uuuu,US,US,1490900131,0,0,85977539,Gramercy Park N  & Gramercy Park W,85865705,110/891/166/1/1108911661.geojson,intersection,85688543,mapzen,,,US
"-73.9897847492,40.7154143981,-73.9886122247,40.7173295033",uuuu,85633793,,92c673b73be7f4f8de3f2ffd0e5959ac,,6f714602eaa77cf8be262a28c4b46460,40.716449,-73.989221,1108911669,uuuu,US,US,1490900131,0,0,85977539,Grand St  & Essex St,85831563,110/891/166/9/1108911669.geojson,intersection,85688543,mapzen,,,US
"-73.9548712088,40.7700210416,-73.9524782078,40.772062403",uuuu,85633793,,d8c2132bd9df542ca45f7b7d4270e1cb,,c3ec224dce9f5694b00fd8e7bbc21d3d,40.771041,-73.953673,1108911965,uuuu,US,US,1490900131,0,0,85977539,1st Ave  & E 77th St,907214349,110/891/196/5/1108911965.geojson,intersection,85688543,mapzen,,,US
"-73.9639279578,40.7928902085,-73.9606911934,40.7949477134",uuuu,85633793,,bfe9d2f3c519284a30ddb919911e0b5b,,380825ee39878c26d0e7f2c677804718,40.793725,-73.962612,1108911967,uuuu,US,US,1490900131,0,0,85977539,Central Park W  & W 100th St,420529187,110/891/196/7/1108911967.geojson,intersection,85688543,mapzen,,,US
"-73.9806982214,40.7702990096,-73.9783045713,40.772979935",uuuu,85633793,,3a4d3564dfd5f71e511f44f69b35ca71,,326e67454f84d4763fdb6808b66bbe64,40.771708,-73.979448,1108911963,uuuu,US,US,1490900131,0,0,85977539,Central Park W  & W 65th St,420529187,110/891/196/3/1108911963.geojson,intersection,85688543,mapzen,,,US
"-73.9843175005,40.7463089767,-73.9825524768,40.7479002514",uuuu,0,,3a8da047fbc6632f5ff24b1011d880c4,,75b84cbf1a3ab5b1e3ce46c0c5b5a8ae,40.747108,-73.983434,1108911961,uuuu,US,US,1490900131,0,0,0,E 33rd St  & Madison Ave,-1,110/891/196/1/1108911961.geojson,intersection,0,mapzen,,,US
"-73.9600593803,40.7706976882,-73.958017184,40.7724876542",uuuu,85633793,,58e686ee3daa921b1b0b9a6e1a02d886,,3b28e6222ae5f8f1274e1ae3df6ec38a,40.771599,-73.959046,1108914085,uuuu,US,US,1490900131,0,0,85977539,3rd Ave  & E 75th St,907214349,110/891/408/5/1108914085.geojson,intersection,85688543,mapzen,,,US
"-73.976276865,40.7888554176,-73.9746901641,40.7903136146",uuuu,85633793,,68ddb0ff8a23bb80d2ac1446b97a48f9,,d151581bfaedf4cc29b280d61ec72911,40.789585,-73.975483,1108914087,uuuu,US,US,1490900131,0,0,85977539,Broadway  & W 88th St,85853285,110/891/408/7/1108914087.geojson,intersection,85688543,mapzen,,,US
"-73.9842736473,40.7489401672,-73.9827480993,40.749724",uuuu,85633793,,b9f912a7b3359ddc5109668c3f5e07f8,,326f0fe26e1329cc7cd2e56a1a1152f7,40.749442,-73.983372,1108914083,uuuu,US,US,1490900131,0,0,85977539,E 36th St  & 5th Ave,907212749,110/891/408/3/1108914083.geojson,intersection,85688543,mapzen,,,US
"-74.0097435235,40.7064523695,-74.0082397739,40.7076493301",uuuu,85633793,,ca0d423da3eb6162fa41459d12915111,,eb1a297050a2d6dd69587d70a01f9919,40.706967,-74.009078,1108914081,uuuu,US,US,1490900131,0,0,85977539,William St  & Pine St,85865711,110/891/408/1/1108914081.geojson,intersection,85688543,mapzen,,,US
"-73.9863101331,40.7406836177,-73.9845476749,40.742259244",uuuu,85633793,,045f5b12f84d624bbcb0cb1922c9dc61,,e512155533becf32a6a2aa73cb962bc5,40.741472,-73.985429,1108914089,uuuu,US,US,1490900131,0,0,85977539,E 25th St  & Park Ave S,85869245,110/891/408/9/1108914089.geojson,intersection,85688543,mapzen,,,US
"-74.0068001346,40.7245617931,-74.005156066,40.7254992012",uuuu,85633793,,6bf496cb01db89eb321629f3fea5b1fc,,36cdf6c1e95ea09d7514856b22c4725f,40.725046,-74.005964,1108910265,uuuu,US,US,1490900131,0,0,85977539,Dominick St  & Varick St,85865687,110/891/026/5/1108910265.geojson,intersection,85688543,mapzen,,,US
"-73.9624558982,40.7794427949,-73.9604879013,40.7811175078",uuuu,85633793,,20a6766294a68f2d048000d386dff6aa,,20b27540b8b9cc01b96f4c20a45725c6,40.780276,-73.961439,1108910267,uuuu,US,US,1490900131,0,0,85977539,E 84th St  & 85th St Transverse,420529187,110/891/026/7/1108910267.geojson,intersection,85688543,mapzen,,,US
"-73.957688541,40.7739501084,-73.9556318693,40.7757563585",uuuu,85633793,,2480e1a38576b26238c239201b97419b,,f1d95f649b299e42830ea08c5347838f,40.774856,-73.956669,1108910263,uuuu,US,US,1490900131,0,0,85977539,E 80th St  & 3rd Ave,907215779,110/891/026/3/1108910263.geojson,intersection,85688543,mapzen,,,US
"-74.0071644121,40.7489833961,-74.0046416476,40.7511514291",uuuu,85633793,,2d89ed1535d0710a8c5aaf38bc760b9b,,c06e1a96cc9a17288c7a6e553985bf3f,40.750071,-74.005933,1108910261,uuuu,US,US,1490900131,0,0,85977539,W 25th St  & 11th Ave,85810589,110/891/026/1/1108910261.geojson,intersection,85688543,mapzen,,,US
"-73.9856262122,40.760295124,-73.9839679754,40.7616700899",uuuu,85633793,,31527223bf7959db3b6adf002de9a55b,,ce4461760548166d1ac28842bd08c069,40.760962,-73.984793,1108910269,uuuu,US,US,1490900131,0,0,85977539,Broadway  & W 49th St,907216453,110/891/026/9/1108910269.geojson,intersection,85688543,mapzen,,,US
"-73.969537158,40.7607965971,-73.9677660673,40.762389835",uuuu,85633793,,8fe7bfde44f2de25df29ca8167ad1df8,,6f4f31533ff0e0706b54a3d94ecacd56,40.761591,-73.968652,1108910645,uuuu,US,US,1490900131,0,0,85977539,Lexington Ave  & E 58th St,907215785,110/891/064/5/1108910645.geojson,intersection,85688543,mapzen,,,US
"-73.9799400211,40.7494356551,-73.9781738412,40.7510063063",uuuu,85633793,,4c682cdba8fe22382fbbd469a3af76f9,,5b20a3913fc48132a15a7c8447f990e3,40.750221,-73.979057,1108910647,uuuu,US,US,1490900131,0,0,85977539,E 39th St  & Park Ave,85836095,110/891/064/7/1108910647.geojson,intersection,85688543,mapzen,,,US
"-73.9537660669,40.8027411984,-73.9512749624,40.8036714082",uuuu,85633793,,67c80c7556e46ce4095ed0d995c564bb,,55a804d1cefe1561c51cf563333d4ade,40.803174,-73.95255,1108910643,uuuu,US,US,1490900131,0,0,85977539,St Nicholas Ave  & Adam Clayton Powell Jr Blvd,907139469,110/891/064/3/1108910643.geojson,intersection,85688543,mapzen,,,US
"-73.9767152425,40.7363070321,-73.9749182204,40.7387533551",uuuu,85633793,,95af31af52c1a72b41f817cffd81e1d8,,28c83c2e359716166acd963c2e4173e3,40.737506,-73.975754,1108910641,uuuu,US,US,1490900131,0,0,85977539,E 25th St  & Asser Levy Pl,907189665,110/891/064/1/1108910641.geojson,intersection,85688543,mapzen,,,US
"-73.950612305,40.8310537294,-73.9479383795,40.8326512532",uuuu,85633793,,e220c3e455b39aadbe66d639cdcde493,,eaf67226595459d83cb908d46f612e22,40.831837,-73.948947,1108910649,uuuu,US,US,1490900132,0,0,85977539,Riverside Dr  & W 152nd St,85869313,110/891/064/9/1108910649.geojson,intersection,85688543,mapzen,,,US
"-73.9514479389,40.8118736586,-73.9501332142,40.8133603937",uuuu,85633793,,8044e88ad85e55b5b2267c554bb36964,,24f68487acb415f9c9334b0fbe679f2d,40.812668,-73.950735,1108913075,uuuu,US,US,1490900132,0,0,85977539,W 128th St  & St Nicholas Ave,85865555,110/891/307/5/1108913075.geojson,intersection,85688543,mapzen,,,US
"-73.9386770421,40.7862318507,-73.9312000694,40.7910662244",uuuu,85633793,,5e3bd7a689b2d41490bd67bdeed1fccb,,109bad038b358b18330f3045ec5517e5,40.789029,-73.935751,1108913077,uuuu,US,US,1490900132,0,0,85977539,F D R Dr  & E 107th St,85865689,110/891/307/7/1108913077.geojson,intersection,85688543,mapzen,,,US
"-73.9462698789,40.8283064786,-73.9439166187,40.8302137408",uuuu,85633793,,707e783d710db875ef4d946a4a7e326c,,55ac30984b28f16992bd73d71d55a543,40.829235,-73.945115,1108913073,uuuu,US,US,1490900132,0,0,85977539,Amsterdam Ave  & W 151st St,907215743,110/891/307/3/1108913073.geojson,intersection,85688543,mapzen,,,US
"-73.9681214726,40.7731870382,-73.9647319418,40.7760362894",uuuu,85633793,,cca75c63dee54afd7b0738ba6227d0d1,,9e2fc9bff7824bd702c95209a35973bb,40.7746,-73.966473,1108913071,uuuu,US,US,1490900132,0,0,85977539,5th Ave  & E 75th St,907214349,110/891/307/1/1108913071.geojson,intersection,85688543,mapzen,,,US
"-73.9829948195,40.7701284922,-73.9811196017,40.7709991229",uuuu,85633793,,644be11f3f965806af2cdc54aea2b51a,,4b179c734a6dfa617caedf198154cdfc,40.770573,-73.982071,1108913079,uuuu,US,US,1490900132,0,0,85977539,Broadway  & W 62nd St,85853285,110/891/307/9/1108913079.geojson,intersection,85688543,mapzen,,,US
"-73.9339448897,40.8467802875,-73.9320227192,40.8487853712",uuuu,85633793,,56a4e2030101ec01cb3e72659b5dce16,,beae7d3f120b49521b166df922e7d521,40.847704,-73.932988,1108914585,uuuu,US,US,1490900132,0,0,85977539,Audubon Ave  & W 180th St,85854625,110/891/458/5/1108914585.geojson,intersection,85688543,mapzen,,,US
"-73.9942819232,40.7132779107,-73.993316822,40.7140239588",uuuu,85633793,,f65b86ed2dafec682447845170fb9d84,,97502a8265f953cdcbac1583423785f5,40.713714,-73.993832,1108914587,uuuu,US,US,1490900132,0,0,85977539,E Broadway  & Forsyth St,85810885,110/891/458/7/1108914587.geojson,intersection,85688543,mapzen,,,US
"-73.9918095106,40.7334831323,-73.9903179998,40.7345364811",uuuu,85633793,,3c68e6cbdd3cc8fc18b16687e0841ace,,2b318c053cc31a8bc67c91ad0c7a82d8,40.734008,-73.99103,1108914583,uuuu,US,US,1490900132,0,0,85977539,E 13th St  & Broadway,420529189,110/891/458/3/1108914583.geojson,intersection,85688543,mapzen,,,US
"-74.0097167984,40.7027715268,-74.0087192967,40.7044049266",uuuu,85633793,,b947ce59caadff472324072f0fa40823,,76f217ef3e2bfca219b88ac879797a6a,40.703655,-74.009194,1108914581,uuuu,US,US,1490900132,0,0,85977539,Water St  & Hanover Sq,85865711,110/891/458/1/1108914581.geojson,intersection,85688543,mapzen,,,US
"-73.9860811848,40.7596594449,-73.984357167,40.7609476674",uuuu,85633793,,d6918fff2ce0bead5be42269af597a51,,a1776713876744ca59ced4e113fe4d4d,40.760278,-73.985219,1108914589,uuuu,US,US,1490900132,0,0,85977539,Broadway  & W 48th St,907216453,110/891/458/9/1108914589.geojson,intersection,85688543,mapzen,,,US
"-73.9888800079,40.7547797923,-73.986920748,40.7565968919",uuuu,85633793,,ea0d930dc4de0fa00a8bea48e882fffd,,0c973c885e487f1a3d9825d75bef23a5,40.755696,-73.987872,1108912865,uuuu,US,US,1490900132,0,0,85977539,Fashion Ave  & W 41st St,907216453,110/891/286/5/1108912865.geojson,intersection,85688543,mapzen,,,US
"-74.0071602254,40.739412177,-74.0059608912,40.7404287917",uuuu,85633793,,316b368ab86fe547f007fd20123a7e8c,,6d37dee7537b985f84b5100376e1b99b,40.739918,-74.006556,1108912867,uuuu,US,US,1490900132,0,0,85977539,9th Ave  & Little W 12th St,907214383,110/891/286/7/1108912867.geojson,intersection,85688543,mapzen,,,US
"-74.0045336696,40.7307073057,-74.0035803457,40.7317114553",uuuu,85633793,,2468d23d4f4c638d15099a9b98d4c84f,,ec00832970e10a9ab8160f0deb48c33e,40.731165,-74.004053,1108912863,uuuu,US,US,1490900132,0,0,85977539,7th Ave S  & Morton St,85856577,110/891/286/3/1108912863.geojson,intersection,85688543,mapzen,,,US
"-73.93292313,40.7995132216,-73.9293473635,40.801988293",uuuu,85633793,,0cbe11977713ed9f9edb0769870affb2,,1e24300a14a56cbc6595de395544dabe,40.800709,-73.931139,1108912861,uuuu,US,US,1490900132,0,0,85977539,1st Ave  & E 124th St,85865689,110/891/286/1/1108912861.geojson,intersection,85688543,mapzen,,,US
"-74.0081488654,40.705610932,-74.0070341559,40.7066334504",uuuu,85633793,,16ba0895975f009444d00e470df7f331,,8799129e5ba70ef5b82ada2a4871cdd1,40.706137,-74.007627,1108912395,uuuu,US,US,1490900132,0,0,85977539,Pearl St  & Pine St,85865711,110/891/239/5/1108912395.geojson,intersection,85688543,mapzen,,,US
"-73.9431660969,40.7998214543,-73.9414014527,40.8014032244",uuuu,85633793,,5ac968c939f6327df11c45ec31a6de57,,8b04b1d6d42647d0f2dd4c81efaba9e2,40.800612,-73.942284,1108912397,uuuu,US,US,1490900132,0,0,85977539,E 118th St  & Park Ave,85865689,110/891/239/7/1108912397.geojson,intersection,85688543,mapzen,,,US
"-73.9940548831,40.7121222639,-73.9930288592,40.7136520274",uuuu,85633793,,3bd05939f4904396960a55ac2994d953,,d318076b1752e4bfd72c0f814b1be25c,40.712935,-73.993506,1108912393,uuuu,US,US,1490900132,0,0,85977539,Forsyth St  & Henry St,85810885,110/891/239/3/1108912393.geojson,intersection,85688543,mapzen,,,US
"-73.9457233631,40.820162968,-73.9444074202,40.8214274436",uuuu,85633793,,af586cc535f0fffd552c14ab85651f9e,,60b1a8599820f805a71d261a2ed16f2d,40.820795,-73.945066,1108912391,uuuu,US,US,1490900132,0,0,85977539,W 141st St  & Edgecombe Ave,85865555,110/891/239/1/1108912391.geojson,intersection,85688543,mapzen,,,US
"-73.967608571,40.7974795501,-73.9652321962,40.7999763999",uuuu,85633793,,aae86eb45e09cd92fbc7196d89ce4aa6,,a73c100f18c709fbc3b8365bc4560b0b,40.798739,-73.96645,1108912399,uuuu,US,US,1490900132,0,0,85977539,W 104th St  & Amsterdam Ave,907214381,110/891/239/9/1108912399.geojson,intersection,85688543,mapzen,,,US
"-73.9991724352,40.7163548314,-73.9979998977,40.7177903409",uuuu,85633793,,b57e2d346d909c81d98d09bb7289864b,,4dbdf139b5a09d4e6bb7f7f39b1eeaa7,40.71705,-73.998589,1108912345,uuuu,US,US,1490900132,0,0,85977539,Walker St  & Canal St,85830947,110/891/234/5/1108912345.geojson,intersection,85688543,mapzen,,,US
"-74.026017,40.7276112506,-74.0099698239,40.7309186083",uuuu,85633793,,26be5b63aaa75834bdb65c45b27350be,,0eebabfadb8d0e59347d079f7b4765df,40.729211,-74.017997,1108912343,uuuu,US,US,1490900132,0,0,85977539,Lincoln Hwy  & W Houston St,85865687,110/891/234/3/1108912343.geojson,intersection,85688543,mapzen,,,US
"-73.9446991506,40.7812470359,-73.9404958561,40.7837908566",uuuu,85633793,,c37014518924c3acf2b06f3f2874a8a5,,0b5b314afc43b591055b0c236c243dd1,40.782455,-73.942806,1108912341,uuuu,US,US,1490900132,0,0,85977539,E 96th St  & F D R Dr,907215779,110/891/234/1/1108912341.geojson,intersection,85688543,mapzen,,,US
"-73.9999089725,40.762525146,-73.997885438,40.7643557456",uuuu,0,,1ab3204406fe683765fb3d8cc31fb93c,,607492d8568de110b04c222a0f6fc560,40.763457,-73.998813,1108912349,uuuu,US,US,1490900132,0,0,0,12th Ave  & W 45th St,-1,110/891/234/9/1108912349.geojson,intersection,0,mapzen,,,US
"-74.0102661543,40.7081480033,-74.0093630484,40.7093221248",uuuu,85633793,,d2f8d56fe4100611f0b0c8ea052ef566,,f7feae19eee5cafa11bb4670ecd5c87e,40.708752,-74.009836,1108911675,uuuu,US,US,1490900132,0,0,85977539,Liberty Pl  & Liberty St,85865711,110/891/167/5/1108911675.geojson,intersection,85688543,mapzen,,,US
"-73.9405839703,40.806246887,-73.9388223227,40.8078223946",uuuu,85633793,,38fda94cc1e0ba6deaec426d726d399d,,610f2af8b8291d8dcdbeaaa85aad9a88,40.807034,-73.939703,1108911677,uuuu,US,US,1490900132,0,0,85977539,Madison Ave  & E 127th St,85865689,110/891/167/7/1108911677.geojson,intersection,85688543,mapzen,,,US
"-73.9960530953,40.7165161361,-73.9944508471,40.7180470716",uuuu,85633793,,4069b4999bd544fa7b53b828052fee93,,b70eab7744edb27957ec5fd5b31edc5b,40.717252,-73.995256,1108911673,uuuu,US,US,1490900132,0,0,85977539,Hester St  & Bowery,85810885,110/891/167/3/1108911673.geojson,intersection,85688543,mapzen,,,US
"-73.9499709345,40.7970275253,-73.9479047238,40.7988098073",uuuu,85633793,,312fa941eab18ab00f71ae2556f8a4f7,,20e7ba68d1e7685dd2353b945a3ae7c6,40.797716,-73.948939,1108911671,uuuu,US,US,1490900132,0,0,85977539,W 111th St  & 5th Ave,85865689,110/891/167/1/1108911671.geojson,intersection,85688543,mapzen,,,US
"-73.9880928203,40.7654169895,-73.9852249147,40.7678077178",uuuu,85633793,,1c2f6e5004d261e91b481b5847689c2f,,10766d9f31d2ebf28dd997b5efb4ad58,40.766612,-73.986656,1108911679,uuuu,US,US,1490900132,0,0,85977539,9th Ave  & W 55th St,85882233,110/891/167/9/1108911679.geojson,intersection,85688543,mapzen,,,US
"-74.0015314403,40.7174063989,-74.0005411044,40.7184636279",uuuu,85633793,,77e495fb935c96161534f9055e959122,,2cd18bb7741c5b58893a859c3b615fdf,40.717921,-74.001037,1108914425,uuuu,US,US,1490900132,0,0,85977539,Walker St  & Lafayette St,85810885,110/891/442/5/1108914425.geojson,intersection,85688543,mapzen,,,US
"-73.9655566133,40.7935158379,-73.9634847575,40.7956134903",uuuu,85633793,,734fe0137a321ff41887eb9bdaa12bcc,,dfa5811def9da0f6ec58aa3d9b8efdd8,40.794385,-73.964533,1108914427,uuuu,US,US,1490900132,0,0,85977539,W 100th St  & Manhattan Ave,907214381,110/891/442/7/1108914427.geojson,intersection,85688543,mapzen,,,US
"-74.0096603599,40.7307154113,-74.0084352604,40.7316515044",uuuu,85633793,,cec9428a8979d234dc9347112d87c951,,ceac906c43597d4c09666e065d4d2791,40.731181,-74.00905,1108914423,uuuu,US,US,1490900132,0,0,85977539,Washington St  & Morton St,85856577,110/891/442/3/1108914423.geojson,intersection,85688543,mapzen,,,US
"-73.9631789232,40.7586157602,-73.9608013483,40.7606469275",uuuu,85633793,,a9450069091d09be02ccf66db18aefc8,,7d3beabb3b107cf99f3a4bcbc4814b9d,40.759629,-73.961993,1108914421,uuuu,US,US,1490900132,0,0,85977539,1st Ave  & E 59th St,907214349,110/891/442/1/1108914421.geojson,intersection,85688543,mapzen,,,US
"-74.0124322813,40.705681871,-74.0113424865,40.7070303419",uuuu,85633793,,09c80c742299d24e00dfe6ce4f691c68,,375eebbdaa01ba068d01d5f3cd8816a9,40.706385,-74.011908,1108914429,uuuu,US,US,1490900132,0,0,85977539,Exchange Pl  & New St,85865711,110/891/442/9/1108914429.geojson,intersection,85688543,mapzen,,,US
"-73.9865233911,40.7185702486,-73.9853233969,40.7200643778",uuuu,85633793,,7e6a6c494d6eb11d45afff7b7e34dcc3,,b97d6cc54c8c11836b5a1e204561f3aa,40.719307,-73.985925,1108911725,uuuu,US,US,1490900132,0,0,85977539,Rivington St  & Suffolk St,85831563,110/891/172/5/1108911725.geojson,intersection,85688543,mapzen,,,US
"-73.9104917987,40.8763156547,-73.9087927055,40.8771848805",uuuu,85633793,,758a65452bee0131f36cdd793a7430da,,f9040394174d92e6fe72ecea73cb31ad,40.876679,-73.909663,1108911727,uuuu,US,US,1490900132,0,0,85977539,Marble Hill Ave  & W 227th St,85865673,110/891/172/7/1108911727.geojson,intersection,85688543,mapzen,,,US
"-73.996913832,40.7588564326,-73.9946152262,40.7608385926",uuuu,85633793,,19c23bfc565fd716379995abbbc206d0,,cd12c879c92a92c7ea1c163a8df75f24,40.759838,-73.99575,1108911723,uuuu,US,US,1490900132,0,0,85977539,W 42nd St  & 10th Ave,85882233,110/891/172/3/1108911723.geojson,intersection,85688543,mapzen,,,US
"-73.9895114061,40.7685741583,-73.9866245029,40.7709734355",uuuu,85633793,,191c590cdbdbdfe7d3791a5a2b6adc0c,,62635f731a7991e6346fd0fca1e52fe8,40.769772,-73.988066,1108911721,uuuu,US,US,1490900132,0,0,85977539,W 58th St  & 10th Ave,85882233,110/891/172/1/1108911721.geojson,intersection,85688543,mapzen,,,US
"-73.9909476763,40.718648934,-73.9898661338,40.7200043013",uuuu,85633793,,1b28bf8d092d4bdfa8ef329ccb44de65,,9849b47c01fb153f18fd368aaed8efbc,40.719337,-73.990408,1108911729,uuuu,US,US,1490900132,0,0,85977539,Delancey St  & Allen St,907189673,110/891/172/9/1108911729.geojson,intersection,85688543,mapzen,,,US
"-73.9957950588,40.7282676779,-73.9945287682,40.7293257359",uuuu,85633793,,9ee80814adf183044d94b5a7d0ef0fca,,9d5fe168f35d1bf88ceb8b954ffd47bf,40.728834,-73.995141,1108910595,uuuu,US,US,1490900132,0,0,85977539,W 4th St  & Mercer St,420529189,110/891/059/5/1108910595.geojson,intersection,85688543,mapzen,,,US
"-74.0102684763,40.7097745136,-74.0089863293,40.710831953",uuuu,85633793,,2c30674a6ee47e6f5bf0201c5f988b18,,03443b0bd63204e5be3a985eb1abce7f,40.710262,-74.009677,1108910597,uuuu,US,US,1490900132,0,0,85977539,Broadway  & John St,85865711,110/891/059/7/1108910597.geojson,intersection,85688543,mapzen,,,US
"-73.9423644569,40.8178905455,-73.9394946416,40.8202870122",uuuu,0,,6ef1eb3e5884d3c493f50393d19a8e23,,fef7ff6427eb651d0f7567a5ab5e34b0,40.819078,-73.940907,1108910593,uuuu,US,US,1490900132,0,0,0,W 141st St  & Adam Clayton Powell Jr Blvd,-1,110/891/059/3/1108910593.geojson,intersection,0,mapzen,,,US
"-74.016465244,40.7057523312,-74.0154738621,40.7072446152",uuuu,85633793,,bca87d948cd6630f72c6365ed489caa6,,eabe4d62e3d547faaa1ff6bad78167c6,40.706541,-74.015956,1108910591,uuuu,US,US,1490900132,0,0,85977539,Battery Park Viaduct  & West St,85804741,110/891/059/1/1108910591.geojson,intersection,85688543,mapzen,,,US
"-73.9829373424,40.7274342358,-73.9805860291,40.729438159",uuuu,85633793,,3752d85c06a6b7d9c69eb3f3e1685f7e,,fe5df71dc0e53242d56eeb216c28983c,40.728439,-73.981761,1108910599,uuuu,US,US,1490900132,0,0,85977539,Ave A  & E 11th St,907189647,110/891/059/9/1108910599.geojson,intersection,85688543,mapzen,,,US
"-73.9371863906,40.8020008921,-73.9351307172,40.8038299273",uuuu,85633793,,04300ec6760c10838dc38cd7b2d76b91,,3201a466893f78a36f905ccd63d9bda3,40.802928,-73.936156,1108910825,uuuu,US,US,1490900132,0,0,85977539,3rd Ave  & E 124th St,85865689,110/891/082/5/1108910825.geojson,intersection,85688543,mapzen,,,US
"-73.9405426021,40.8515892612,-73.9381809832,40.8534345592",uuuu,85633793,,a81218a7b8e701d4d5794bea56ea9a22,,2fcb7d7f64e32491d93d70b34f026379,40.852554,-73.939232,1108910827,uuuu,US,US,1490900132,0,0,85977539,Pinehurst Ave  & W 183rd St,907214331,110/891/082/7/1108910827.geojson,intersection,85688543,mapzen,,,US
"-73.9637724059,40.7529116512,-73.9606225515,40.7560727352",uuuu,85633793,,75fd23ab03d9cf99fd525cac38fc6a4a,,5a998985832337bd712e08670ca09b91,40.754548,-73.962178,1108910823,uuuu,US,US,1490900132,0,0,85977539,Sutton Pl S  & E 53rd St,907215745,110/891/082/3/1108910823.geojson,intersection,85688543,mapzen,,,US
"-73.9915214882,40.7144795076,-73.9907673628,40.7153617757",uuuu,85633793,,45c22f70419b8e3809f5d33fe51e1e1d,,403172d794c9928cc57f0d9f3cffaa42,40.714957,-73.99114,1108910821,uuuu,US,US,1490900132,0,0,85977539,Ludlow St  & Canal St,85810885,110/891/082/1/1108910821.geojson,intersection,85688543,mapzen,,,US
"-74.0021266614,40.7410795855,-73.9992796655,40.74343104",uuuu,85633793,,4d9537abddeb553579a08880ef2fff3a,,3ae0fe7ece2e4881ca03bd6ba9bec941,40.742255,-74.000705,1108910829,uuuu,US,US,1490900132,0,0,85977539,W 18th St  & 8th Ave,85810589,110/891/082/9/1108910829.geojson,intersection,85688543,mapzen,,,US
"-73.9981269056,40.7512882882,-73.9953451382,40.753423703",uuuu,85633793,,08888cea192631e244d8f24679c609d6,,65d4e42117c46b77ec283d798c141f44,40.752373,-73.996643,1108913115,uuuu,US,US,1490900132,0,0,85977539,9th Ave  & W 33rd St,85810589,110/891/311/5/1108913115.geojson,intersection,85688543,mapzen,,,US
"-74.0103663087,40.7269841659,-74.008053495,40.7279998457",uuuu,85633793,,180824abc15953620e7e6c8bfb1364f3,,b558a49b954a698445e1164204ee6534,40.727512,-74.00914,1108913117,uuuu,US,US,1490900132,0,0,85977539,Charlton St  & Greenwich St,85865687,110/891/311/7/1108913117.geojson,intersection,85688543,mapzen,,,US
"-73.9388808122,40.850251882,-73.9376549453,40.8516563147",uuuu,85633793,,c6908b4e97d7d5e4c661ef99ec7fb9ed,,ff4206bf124048328cfd453a4428e34a,40.850982,-73.938266,1108913113,uuuu,US,US,1490900132,0,0,85977539,Fort Washington Ave  & W 181st St,907214331,110/891/311/3/1108913113.geojson,intersection,85688543,mapzen,,,US
"-73.9980213909,40.7137187598,-73.9968028133,40.7145683272",uuuu,85633793,,2a6bf61a474131000744ea9ae153b832,,676fefaf8854edeb7e6a20f4ed917b65,40.714116,-73.997477,1108913111,uuuu,US,US,1490900132,0,0,85977539,Division St  & Chatham Sq,85810885,110/891/311/1/1108913111.geojson,intersection,85688543,mapzen,,,US
"-73.9860936984,40.7133582191,-73.9845054415,40.713787",uuuu,85633793,,af985e0250b82b4c1ceedab9a8520e65,,d621609c81b434532d1a23e41c29e5cf,40.713585,-73.985454,1108913119,uuuu,US,US,1490900132,0,0,85977539,Samuel Dickstein Plz  & Henry St,85831563,110/891/311/9/1108913119.geojson,intersection,85688543,mapzen,,,US
"-73.9850484924,40.7359850018,-73.9833550006,40.737499716",uuuu,85633793,,c575417909ea6fa5305ef2e1f4f4f621,,8b95cf6bfb5213337950a70589740e5e,40.736754,-73.984218,1108913065,uuuu,US,US,1490900132,0,0,85977539,E 20th St  & 3rd Ave,85865705,110/891/306/5/1108913065.geojson,intersection,85688543,mapzen,,,US
"-74.0032628342,40.7297069861,-74.0019901086,40.730873769",uuuu,85633793,,c0015448a6f81a5045a54098bc97ff0a,,5a83a67d50768c5f816989a3d7116840,40.73026,-74.002611,1108913063,uuuu,US,US,1490900132,0,0,85977539,Carmine St  & Bleecker St,85856577,110/891/306/3/1108913063.geojson,intersection,85688543,mapzen,,,US
"-73.9833429594,40.7418637415,-73.9815872809,40.7434333189",uuuu,85633793,,f07c0ecc2c257d34e5e8295f2c03d406,,6343497e84a415c6db097cadedf8a6e6,40.742648,-73.982465,1108913061,uuuu,US,US,1490900132,0,0,85977539,Lexington Ave  & E 28th St,907215785,110/891/306/1/1108913061.geojson,intersection,85688543,mapzen,,,US
"-73.9402899302,40.8465753896,-73.9389705674,40.8476776065",uuuu,85633793,,1ecfb3a70cdd9f4e76cdfdfa9fa73cec,,d1262cd24da0dc46ce52f93f9cadc0c1,40.847131,-73.939631,1108913069,uuuu,US,US,1490900132,0,0,85977539,Fort Washington Ave  & W 176th St,907214331,110/891/306/9/1108913069.geojson,intersection,85688543,mapzen,,,US
"-73.9145752263,40.8612322491,-73.9083525,40.8696709035",uuuu,85633793,,cb0d3694e18050f5dfa65091487cbb38,,0432a782b65f6d3b1791f8d156a3334c,40.865611,-73.911368,1108910207,uuuu,US,US,1490900132,0,0,85977539,9th Ave  & W 215th St,85826989,110/891/020/7/1108910207.geojson,intersection,85688543,mapzen,,,US
"-73.9304299921,40.8635082488,-73.9282259546,40.8656350857",uuuu,85633793,,4070c5b678ae7d0e71d8dd806c97b25c,,e386e36389c5001044ba69694bb42989,40.864469,-73.929348,1108910203,uuuu,US,US,1490900132,0,0,85977539,Broadway  & Arden St,85826989,110/891/020/3/1108910203.geojson,intersection,85688543,mapzen,,,US
"-73.959244104,40.8104035011,-73.9561942292,40.8127505252",uuuu,85633793,,eac9a724f4d50f0db70a924f0dbd77ac,,8ef1dea786b92fdb8ab03aa1b84293d3,40.811515,-73.957754,1108910201,uuuu,US,US,1490900132,0,0,85977539,W 123rd St  & Amsterdam Ave,85869509,110/891/020/1/1108910201.geojson,intersection,85688543,mapzen,,,US
"-73.925566821,40.8655257316,-73.9239353362,40.8672321104",uuuu,85633793,,183da17a67722d0d1242b6ab53463490,,285124014bf05ab7e7b9b88494f26c06,40.866414,-73.924765,1108910209,uuuu,US,US,1490900132,0,0,85977539,Academy St  & Broadway,85826989,110/891/020/9/1108910209.geojson,intersection,85688543,mapzen,,,US
"-73.9960179518,40.7211105733,-73.9947992342,40.7224808414",uuuu,85633793,,6d7b9783595b8445c03775964b0e441e,,d41c7bf7b5be7ef37111cd5231a6aa4e,40.721794,-73.995405,1108911395,uuuu,US,US,1490900132,0,0,85977539,Mott St  & Spring St,85869533,110/891/139/5/1108911395.geojson,intersection,85688543,mapzen,,,US
"-73.9802820611,40.7656911328,-73.9780149185,40.7688858705",uuuu,85633793,,579a8bb251eaf49996c4ca5fd5634e30,,a6790e62fae9eebca18ac1e2346766ba,40.767352,-73.979098,1108911397,uuuu,US,US,1490900132,0,0,85977539,Central Park S  & 7th Ave,420529187,110/891/139/7/1108911397.geojson,intersection,85688543,mapzen,,,US
"-73.99059906,40.7472569971,-73.9886268147,40.749087355",uuuu,85633793,,ee4fa2b0a81d21d94036cd8a5b102b2c,,723255a86ddac8c86e8ac2ade1b4bda7,40.748192,-73.989582,1108911391,uuuu,US,US,1490900132,0,0,85977539,W 31st St  & 6th Ave,85810589,110/891/139/1/1108911391.geojson,intersection,85688543,mapzen,,,US
"-73.9590597174,40.7606699204,-73.9573808361,40.7621690716",uuuu,85633793,,4e214b04571605ad3cb0823946e27477,,5d4109d4e1e3bcb88327b8285776e219,40.761395,-73.958205,1108911399,uuuu,US,US,1490900132,0,0,85977539,E 63rd St  & York Ave,907214349,110/891/139/9/1108911399.geojson,intersection,85688543,mapzen,,,US
"-73.9693500433,40.7983849299,-73.9676061183,40.7997576329",uuuu,85633793,,c5506049c0a0ef82c03157fd1a1a8ab2,,d5cfdc0167e2611ce8c6db8a2e24783d,40.799078,-73.968486,1108914335,uuuu,US,US,1490900132,0,0,85977539,W 103rd St  & Broadway,85853285,110/891/433/5/1108914335.geojson,intersection,85688543,mapzen,,,US
"-73.9655474945,40.7553831826,-73.9631038737,40.7574156776",uuuu,85633793,,01ed9dd25bd2c2f919c05d23013e34d8,,c969ca84aa4e14e871b64f04d6d1fb23,40.756397,-73.964346,1108914337,uuuu,US,US,1490900132,0,0,85977539,1st Ave  & E 54th St,907215785,110/891/433/7/1108914337.geojson,intersection,85688543,mapzen,,,US
"-73.971111405,40.802177689,-73.9687155147,40.8041229918",uuuu,85633793,,934bbb9cbed9260b3905bdfd178c3776,,f6c3f5bb5daa1c60f2c3286b82226a36,40.803048,-73.969719,1108914333,uuuu,US,US,1490900132,0,0,85977539,W 107th St  & Riverside Dr,85853285,110/891/433/3/1108914333.geojson,intersection,85688543,mapzen,,,US
"-73.9618485751,40.7814057318,-73.9590461207,40.7840930257",uuuu,85633793,,6c90e8cd4ebb0488e5f925a9dc4e7ecd,,301fd0c5bc31d425f08995a6dca3c80f,40.782624,-73.960484,1108914331,uuuu,US,US,1490900132,0,0,85977539,E 87th St  & 5th Ave,420529187,110/891/433/1/1108914331.geojson,intersection,85688543,mapzen,,,US
"-73.9782933869,40.7317976333,-73.9758188007,40.7339784961",uuuu,85633793,,93063db6071ca7158d51b169f4442f9c,,c99c6a7f08a3eb186917f2f94e55e394,40.73275,-73.977173,1108914339,uuuu,US,US,1490900132,0,0,85977539,Stuyvesant Walk  & Stuyvesant Loop N,85851295,110/891/433/9/1108914339.geojson,intersection,85688543,mapzen,,,US
"-73.9423300766,40.8302955619,-73.9404396465,40.8318055486",uuuu,85633793,,f12bc835ea3ab0e5c8c6678ca8d861cb,,33481bf9285bb19097a9adad22051b99,40.831086,-73.941369,1108914535,uuuu,US,US,1490900132,0,0,85977539,St Nicholas Ave  & W 155th St,85854625,110/891/453/5/1108914535.geojson,intersection,85688543,mapzen,,,US
"-74.0067284527,40.7446420412,-74.0041105238,40.7469169551",uuuu,85633793,,02c2e3cd7dba4db17899f226ecaa3f0b,,23295bb403c4543962ff770bf4470f04,40.745761,-74.005453,1108914537,uuuu,US,US,1490900133,0,0,85977539,10th Ave  & W 20th St,85810589,110/891/453/7/1108914537.geojson,intersection,85688543,mapzen,,,US
"-73.9548290551,40.8112355857,-73.9528059154,40.8129540119",uuuu,85633793,,e034db7777ce18e0ca940dfa7fadfda8,,1ce59ff16101ed43698885728ee06971,40.812091,-73.953748,1108914533,uuuu,US,US,1490900133,0,0,85977539,Morningside Ave  & W 126th St,85869313,110/891/453/3/1108914533.geojson,intersection,85688543,mapzen,,,US
"-73.9920607771,40.7202360218,-73.9909031975,40.7218362464",uuuu,85633793,,ea4bf895c01f941a965b8f880c1b6510,,e7cc3e323bbf5f34896604a8038088b8,40.720991,-73.991484,1108914531,uuuu,US,US,1490900133,0,0,85977539,Rivington St  & Forsyth St,907189673,110/891/453/1/1108914531.geojson,intersection,85688543,mapzen,,,US
"-73.9520286951,40.821705936,-73.9506027715,40.8236427136",uuuu,85633793,,ba32301abda0d6f6d95163ae1555bf40,,986c9a61b10eb0505ac240fd9ddf1c2a,40.82267,-73.951313,1108914539,uuuu,US,US,1490900133,0,0,85977539,Hamilton Pl  & W 140th St,85869313,110/891/453/9/1108914539.geojson,intersection,85688543,mapzen,,,US
"-73.98510775,40.7244577799,-73.9827693123,40.726441763",uuuu,85633793,,2eca120b6364d2ee8b82e66ecf3da69b,,04737e5a1c86fc145d7be554ede6cec1,40.725449,-73.983941,1108913565,uuuu,US,US,1490900133,0,0,85977539,Ave A  & E 6th St,907189647,110/891/356/5/1108913565.geojson,intersection,85688543,mapzen,,,US
"-73.9481114743,40.7901527728,-73.9463520414,40.7917299937",uuuu,85633793,,cca2169822d155af0a6824fb7dec44f0,,395514e7ec568a07a5725a013addc803,40.790942,-73.947232,1108913567,uuuu,US,US,1490900133,0,0,85977539,Lexington Ave  & E 104th St,85865689,110/891/356/7/1108913567.geojson,intersection,85688543,mapzen,,,US
"-73.9932236827,40.7634920614,-73.9903530135,40.765873999",uuuu,0,,9b9c103d7f2ab72de6562634a71b1839,,c4e16b91e436be42faa50e3b5353b6c7,40.764683,-73.991787,1108913563,uuuu,US,US,1490900133,0,0,0,W 50th St  & 10th Ave,-1,110/891/356/3/1108913563.geojson,intersection,0,mapzen,,,US
"-73.9366250452,40.8264622557,-73.9354303194,40.8288269903",uuuu,85633793,,6ebb0be01d1a7ad02a1748a61b70ec9a,,8b63841f75bf472dd24c26c1f4f167dd,40.827801,-73.93597,1108913561,uuuu,US,US,1490900133,0,0,85977539,Macombs Pl  & W 154th St,85865555,110/891/356/1/1108913561.geojson,intersection,85688543,mapzen,,,US
"-73.9406464382,40.8379880888,-73.9389115287,40.8391142101",uuuu,85633793,,945abf85cdbc3dd92896a606da762489,,65748ab6114c3aeabf96ae2bfd320809,40.838565,-73.939773,1108913569,uuuu,US,US,1490900133,0,0,85977539,W 165th St  & Mc Kenna Sq,85854625,110/891/356/9/1108913569.geojson,intersection,85688543,mapzen,,,US
"-73.9878842656,40.7389778611,-73.9859560134,40.740328183",uuuu,85633793,,d3e08418f9fcc3bfe895863bbd5e23a4,,47c084137fe464ffaea1b3ec33b6aeaa,40.73962,-73.986941,1108914675,uuuu,US,US,1490900133,0,0,85977539,E 22nd St  & Park Ave S,85869245,110/891/467/5/1108914675.geojson,intersection,85688543,mapzen,,,US
"-74.0088621558,40.738382974,-74.0072807596,40.7391332794",uuuu,85633793,,12062910406c2e1309f2002e4454c159,,12c08859098d44db466cc28fcfaf6292,40.738757,-74.008071,1108914677,uuuu,US,US,1490900133,0,0,85977539,Horatio St  & Washington St,85856577,110/891/467/7/1108914677.geojson,intersection,85688543,mapzen,,,US
"-74.0048242798,40.7140643903,-74.003349357,40.7155086258",uuuu,85633793,,645f572640c29fe0edf08466445eb347,,df3c7b13d3b397125a602794af426025,40.71481,-74.004071,1108914673,uuuu,US,US,1490900133,0,0,85977539,Elk St  & Duane St,85865569,110/891/467/3/1108914673.geojson,intersection,85688543,mapzen,,,US
"-73.9946157586,40.7698395386,-73.9929362764,40.7711145519",uuuu,0,,2d8b3e69ca131a7d3b79a38863fede60,,2be703c214d2c95906b900dba1979742,40.770465,-73.993798,1108914671,uuuu,US,US,1490900133,0,0,0,12th Ave  & W 56th St,-1,110/891/467/1/1108914671.geojson,intersection,0,mapzen,,,US
"-74.0021061337,40.7326036847,-74.0011668176,40.7333753984",uuuu,85633793,,597cafa91dc4e16097d8422d48a208fd,,adc2f4605c656666ce723d1f107882e2,40.733011,-74.001647,1108914679,uuuu,US,US,1490900133,0,0,85977539,Barrow St  & W Washington Pl,85856577,110/891/467/9/1108914679.geojson,intersection,85688543,mapzen,,,US
"-73.947935496,40.8337740825,-73.9461805865,40.8361597163",uuuu,85633793,,848df62d7120616bd6c0fd16341be159,,3f986a819d82793e2566c3c93a952378,40.835173,-73.946895,1108913537,uuuu,US,US,1490900133,0,0,85977539,Riverside Dr  & W 157th St,85854625,110/891/353/7/1108913537.geojson,intersection,85688543,mapzen,,,US
"-73.9802013072,40.7270554017,-73.977771419,40.7291295809",uuuu,85633793,,01bc650a38ddb613906d2162275fbad3,,a4d8d376e4c24f779985ac2944092279,40.728094,-73.978984,1108913533,uuuu,US,US,1490900133,0,0,85977539,E 12th St  & Ave B,907189647,110/891/353/3/1108913533.geojson,intersection,85688543,mapzen,,,US
"-73.9687712703,40.7550937165,-73.9663806707,40.7571230934",uuuu,85633793,,f2870c2e9e949ec1cddbb0069767d2f5,,d8030c60810cbf887a269721639df608,40.75611,-73.967575,1108913531,uuuu,US,US,1490900133,0,0,85977539,2nd Ave  & E 52nd St,907215757,110/891/353/1/1108913531.geojson,intersection,85688543,mapzen,,,US
"-74.0070981557,40.7227837213,-74.0057225544,40.7235900168",uuuu,85633793,,20919f19423c58ad4dbcc06898fea025,,f1b633f02911759397eb9f6234fb9a01,40.723185,-74.006365,1108913539,uuuu,US,US,1490900133,0,0,85977539,Grand St  & Varick St,85865687,110/891/353/9/1108913539.geojson,intersection,85688543,mapzen,,,US
"-73.9506995622,40.783518005,-73.9486467429,40.7853195464",uuuu,85633793,,e5e6e511ff201404ada3e58438ddac45,,576bb7dbb61f861920b797c2ddef939a,40.784429,-73.949677,1108911765,uuuu,US,US,1490900133,0,0,85977539,3rd Ave  & E 95th St,907215779,110/891/176/5/1108911765.geojson,intersection,85688543,mapzen,,,US
"-73.9549134512,40.8012464165,-73.952928993,40.8031059424",uuuu,85633793,,f2b6da397e1699a1e914c1c835ea6030,,34586aab57059db800fd1a27c7e2683b,40.8022,-73.953883,1108911767,uuuu,US,US,1490900133,0,0,85977539,7th Ave  & W 114th St,85865555,110/891/176/7/1108911767.geojson,intersection,85688543,mapzen,,,US
"-73.9416899897,40.8446902624,-73.9395931009,40.8461353495",uuuu,85633793,,ee88a0cc34573cd7ca4c83169a7293dc,,3b930f339f0ae0518664e28eec937b54,40.845412,-73.940628,1108911763,uuuu,US,US,1490900133,0,0,85977539,Fort Washington Ave  & W 173rd St,907214331,110/891/176/3/1108911763.geojson,intersection,85688543,mapzen,,,US
"-73.9819666718,40.7246619666,-73.9795602469,40.7266955728",uuuu,85633793,,bba3fe7c84e069469d65b18544c86fd4,,4cfec53f6a2ee567d5a749e640ce6c3e,40.725678,-73.980766,1108911761,uuuu,US,US,1490900133,0,0,85977539,E 8th St  & Ave B,907189647,110/891/176/1/1108911761.geojson,intersection,85688543,mapzen,,,US
"-73.9997281269,40.7172159735,-73.9986723415,40.7181274009",uuuu,85633793,,45af96a2bcccf79db2fa230e044ba419,,3670e62513af8e26cf85c6faa024f9d3,40.717701,-73.99919,1108911769,uuuu,US,US,1490900133,0,0,85977539,Canal St  & Baxter St,85830947,110/891/176/9/1108911769.geojson,intersection,85688543,mapzen,,,US
"-73.9508214422,40.8161459136,-73.9486725369,40.8197524479",uuuu,85633793,,8feceb1a5d71dd6ad65ecc178a6494e9,,cfb652927b03443de38249dfc67828fe,40.817941,-73.949653,1108910075,uuuu,US,US,1490900133,0,0,85977539,W 135th St  & Saint Nicholas Ter,85869313,110/891/007/5/1108910075.geojson,intersection,85688543,mapzen,,,US
"-73.9912993523,40.761047734,-73.9884302743,40.7634354601",uuuu,85633793,,f79a04661a6c1d8197b7a3e78de106d1,,a801dd24fc59efc784b5e3453917d60a,40.762241,-73.989871,1108910077,uuuu,US,US,1490900133,0,0,85977539,9th Ave  & W 48th St,85882233,110/891/007/7/1108910077.geojson,intersection,85688543,mapzen,,,US
"-73.9693587532,40.7860143704,-73.96597541,40.7884340056",uuuu,85633793,,45c6aa85bc17148c71314e926473467e,,77286407a590273d3b657c03d1a09cda,40.787141,-73.967789,1108910073,uuuu,US,US,1490900133,0,0,85977539,Central Park W  & W 89th St,420529187,110/891/007/3/1108910073.geojson,intersection,85688543,mapzen,,,US
"-73.9693533713,40.7579550517,-73.9673153974,40.759734609",uuuu,85633793,,6f529b9ab88d9985f3ae5e1ebad1a008,,03e0279ead9a56580e5c335258755176,40.758851,-73.968341,1108910071,uuuu,US,US,1490900133,0,0,85977539,3rd Ave  & E 55th St,907215785,110/891/007/1/1108910071.geojson,intersection,85688543,mapzen,,,US
"-73.9990586608,40.7318494589,-73.9974723941,40.7333199733",uuuu,85633793,,84b41fd402748856b17d20e0379e8d2e,,42177a0cf5b5a651a9d9b21530916778,40.732579,-73.998268,1108914797,uuuu,US,US,1490900133,0,0,85977539,Macdougal Aly  & Mac Dougal St,420529189,110/891/479/7/1108914797.geojson,intersection,85688543,mapzen,,,US
"-73.9847670735,40.729027747,-73.982386729,40.7310635291",uuuu,85633793,,e2b4adcd1baf5a5e530f8bdc59476087,,eceaec6f60e86d58a1e2b2b7df5ccd03,40.730044,-73.983576,1108914793,uuuu,US,US,1490900133,0,0,85977539,1st Ave  & E 12th St,85816887,110/891/479/3/1108914793.geojson,intersection,85688543,mapzen,,,US
"-74.011805336,40.7054721607,-74.0104058694,40.7068910766",uuuu,85633793,,3979b2728c9f901cdfeb91573dec3b32,,ec36e7d27064f8bb55040da524a46bf8,40.706131,-74.011095,1108914791,uuuu,US,US,1490900133,0,0,85977539,Exchange Pl  & Broad St,85865711,110/891/479/1/1108914791.geojson,intersection,85688543,mapzen,,,US
"-73.9890128199,40.7641733835,-73.9861414231,40.7665543019",uuuu,85633793,,20f01795d45beff990620303ac6a9d4d,,798b0658f207bde601837de5b9ca5252,40.765364,-73.987577,1108914799,uuuu,US,US,1490900133,0,0,85977539,9th Ave  & W 53rd St,85882233,110/891/479/9/1108914799.geojson,intersection,85688543,mapzen,,,US
"-73.9610825333,40.7488166471,-73.9569658971,40.7560446742",uuuu,85633793,,d6e31a945f1a63b765f88717ee6265bf,,74269207a0d93b6dfbfcf56c22c7d0be,40.753145,-73.959581,1108910945,uuuu,US,US,1490900133,0,0,85977539,Unnamed Rd- South Pt  & Rd 3,85845835,110/891/094/5/1108910945.geojson,intersection,85688543,mapzen,,,US
"-73.9881001136,40.794333866,-73.9751007018,40.8021140024",uuuu,85633793,,321778671deaaec6efac69cf2c217ba1,,57bee346a3448f359fb5075b63d4ee72,40.797091,-73.980834,1108910947,uuuu,US,US,1490900133,0,0,85977539,Riverside Dr  & W 94th St,85853285,110/891/094/7/1108910947.geojson,intersection,85688543,mapzen,,,US
"-74.0055657976,40.7084114829,-74.004596472,40.709186269",uuuu,85633793,,474eaa86cd2bd8400bd5960a5cea6d77,,3a3faf48325959a86076e6b03507b391,40.708851,-74.005151,1108910941,uuuu,US,US,1490900133,0,0,85977539,Ryders Aly  & Fulton St,85865711,110/891/094/1/1108910941.geojson,intersection,85688543,mapzen,,,US
"-73.9947233804,40.7409297055,-73.9916775944,40.7434424242",uuuu,85633793,,e89069eff0232e4ff65a7fac8749d0b6,,e6d2e46ece599219e6cc12f63ab056bb,40.742188,-73.993204,1108910949,uuuu,US,US,1490900133,0,0,85977539,Ave of the Americas  & W 22nd St,85810589,110/891/094/9/1108910949.geojson,intersection,85688543,mapzen,,,US
"-73.9861535397,40.7582980599,-73.9850580841,40.7593786803",uuuu,85633793,,ee926f73e7db1c3f0764040c8344ff68,,703c16d707dc77332b230619f6038a47,40.758827,-73.985641,1108911017,uuuu,US,US,1490900133,0,0,85977539,Broadway  & W 46th St,907216453,110/891/101/7/1108911017.geojson,intersection,85688543,mapzen,,,US
"-73.9575903311,40.7590485817,-73.9544032956,40.7616047861",uuuu,85633793,,ae7a4ffdf31e179450e118deeaf18073,,692e6809c15d38096f636ea89aa4283c,40.760589,-73.955926,1108911013,uuuu,US,US,1490900133,0,0,85977539,E 63rd St  & F D R Dr,907214349,110/891/101/3/1108911013.geojson,intersection,85688543,mapzen,,,US
"-73.9369973471,40.7754006895,-73.9154305681,40.7933741011",uuuu,85633793,,7d3866c5d314ac7f25d4eb32c01fcfd1,,f5fcb3fa22bb484d14f91c0c4cafa171,40.7857,-73.927918,1108911011,uuuu,US,US,1490900133,0,0,85977539,E 111th St  & F D R Dr,85865689,110/891/101/1/1108911011.geojson,intersection,85688543,mapzen,,,US
"-73.9351430787,40.8521352447,-73.9337397897,40.853167115",uuuu,85633793,,aa094b8961aacaec7878d9a73255de91,,813a698a2aa0ea01b10afe689be15ffb,40.852654,-73.934421,1108911019,uuuu,US,US,1490900133,0,0,85977539,Broadway  & W 185th St,907212535,110/891/101/9/1108911019.geojson,intersection,85688543,mapzen,,,US
"-73.9985903109,40.7297759344,-73.9974115025,40.731340303",uuuu,85633793,,55ca0a1fd9d7f6b4436efcd4762f94c8,,47a646c66bb452293604f8b31bfc1229,40.730499,-73.997997,1108911535,uuuu,US,US,1490900133,0,0,85977539,Thompson St  & Washington Sq S,420529189,110/891/153/5/1108911535.geojson,intersection,85688543,mapzen,,,US
"-73.9961596007,40.7640599612,-73.9936519991,40.7661812175",uuuu,0,,9888d33ce4f4e5255093ab10d561e29c,,9be11231266d66e5c6b10b8f93899b8b,40.765128,-73.994916,1108911533,uuuu,US,US,1490900133,0,0,0,11th Ave  & W 49th St,-1,110/891/153/3/1108911533.geojson,intersection,0,mapzen,,,US
"-74.0073761667,40.7366202734,-74.0061631834,40.7372693537",uuuu,85633793,,4baaf0adc250673091c145c7d066a89f,,6e934e2ac2a8abce17c566222a2cb8eb,40.736998,-74.006728,1108911531,uuuu,US,US,1490900133,0,0,85977539,Bethune St  & Greenwich St,85856577,110/891/153/1/1108911531.geojson,intersection,85688543,mapzen,,,US
"-73.9941266983,40.7235308784,-73.9928578414,40.7250583449",uuuu,85633793,,c356bf15a53c52f2b7971e1ac2c38470,,2b19302ec7b788119d76b6badffd4f39,40.724269,-73.993491,1108911539,uuuu,US,US,1490900133,0,0,85977539,E Houston St  & Elizabeth St,85865699,110/891/153/9/1108911539.geojson,intersection,85688543,mapzen,,,US
"-73.9878547178,40.7131341952,-73.9860673075,40.7141097614",uuuu,85633793,,cc5f5bed523ae6d58485b3e7e4027652,,ab608e10651acaf131fdf8ec48621185,40.713633,-73.986978,1108912145,uuuu,US,US,1490900133,0,0,85977539,Clinton St  & Henry St,85831563,110/891/214/5/1108912145.geojson,intersection,85688543,mapzen,,,US
"-74.0020940741,40.7166525376,-74.0010480017,40.7178478325",uuuu,85633793,,db989df5476d705f197eb375cfeb9946,,d9f8cfd00b196697bac953c52ff39ab4,40.717308,-74.001565,1108912147,uuuu,US,US,1490900133,0,0,85977539,White St  & Lafayette St,85810885,110/891/214/7/1108912147.geojson,intersection,85688543,mapzen,,,US
"-73.9455525787,40.8365142619,-73.9435229536,40.8377964349",uuuu,85633793,,7a6a0d49e6a86a7eeca57215be04e215,,aa999682252fa6951d5d6f99eaa06bea,40.837161,-73.944522,1108912143,uuuu,US,US,1490900133,0,0,85977539,Fort Washington Ave  & W 161st St,85854625,110/891/214/3/1108912143.geojson,intersection,85688543,mapzen,,,US
"-74.0076964322,40.763946768,-73.9984325532,40.7719774343",uuuu,0,,dfb1f14a2dc5521e3ab9a58e6e161968,,85afe32dea3df28c21e7111afe1ddf5e,40.767171,-74.002167,1108912141,uuuu,US,US,1490900133,0,0,0,Lincoln Hwy  & W 46th St,-1,110/891/214/1/1108912141.geojson,intersection,0,mapzen,,,US
"-73.9317193373,40.8523212504,-73.9302155313,40.8537255082",uuuu,85633793,,79723a84597acd541d30a1b67eb84cd5,,91771f2935808f37d1d04e65344413db,40.853022,-73.93097,1108912845,uuuu,US,US,1490900133,0,0,85977539,St Nicholas Ave  & W 187th St,907212535,110/891/284/5/1108912845.geojson,intersection,85688543,mapzen,,,US
"-73.9538481786,40.8072001288,-73.9529351138,40.8080813242",uuuu,85633793,,71d2d143eabd5bbf1816c2b77d116ac9,,1460101b01f9670d5068dbbecf55495a,40.80768,-73.953387,1108912847,uuuu,US,US,1490900133,0,0,85977539,Frederick Douglass Blvd  & W 121st St,85865555,110/891/284/7/1108912847.geojson,intersection,85688543,mapzen,,,US
"-73.9750167034,40.7777574239,-73.9719410096,40.7813899035",uuuu,85633793,,8da380bb5a90b88a37df10ac9606890a,,2a843b2195bcdd5fe4a270e335285c46,40.779815,-73.973318,1108912843,uuuu,US,US,1490900133,0,0,85977539,Central Park W  & W 77th St,420529187,110/891/284/3/1108912843.geojson,intersection,85688543,mapzen,,,US
"-73.9824464049,40.7488795793,-73.9806925694,40.7504497128",uuuu,85633793,,4ebeec5636a52ae1e6c5e652346c7469,,858b32aecc62677c39d550d01e6898e8,40.749665,-73.98157,1108912841,uuuu,US,US,1490900133,0,0,85977539,E 37th St  & Madison Ave,907215785,110/891/284/1/1108912841.geojson,intersection,85688543,mapzen,,,US
"-73.9382931601,40.8543637791,-73.9371087919,40.8561132339",uuuu,85633793,,9542aa21b67903736fe93d6d3e724622,,469a37e0a8b64b05f4d2fcfa32070ab8,40.855168,-73.937666,1108912849,uuuu,US,US,1490900133,0,0,85977539,Pinehurst Ave  & W 187th St,907214331,110/891/284/9/1108912849.geojson,intersection,85688543,mapzen,,,US
"-74.0079804849,40.7333497313,-74.0067904377,40.7340851324",uuuu,85633793,,cbb8ac83ef5591c93b182b77ff37589c,,c32c5afd209f201114ed1f7438026094,40.733716,-74.007365,1108913825,uuuu,US,US,1490900133,0,0,85977539,W 10th St  & Greenwich St,85856577,110/891/382/5/1108913825.geojson,intersection,85688543,mapzen,,,US
"-74.0030926831,40.7552456281,-74.0000671065,40.7579728807",uuuu,85633793,,133ba9a7676e7fdebcbd980a280003e9,,b399b790b97d41a6ef4d8c1e8cf788d7,40.756553,-74.001655,1108913827,uuuu,US,US,1490900133,0,0,85977539,W 35th St  & 11th Ave,85868039,110/891/382/7/1108913827.geojson,intersection,85688543,mapzen,,,US
"-73.9585747616,40.8055742133,-73.956940158,40.8069298313",uuuu,85633793,,1f797a2135714c0c15e6392f5d8648d1,,456c05f4ec499365d4ff482d466b0acf,40.806266,-73.957736,1108913821,uuuu,US,US,1490900133,0,0,85977539,W 117th St  & Morningside Ave,85869509,110/891/382/1/1108913821.geojson,intersection,85688543,mapzen,,,US
"-73.9452077437,40.8054867571,-73.9432850071,40.8078264461",uuuu,85633793,,4090c1bcbc047a6373df234d1698ba83,,178d65f390c6ef8ad139a122a4844286,40.806746,-73.944072,1108913829,uuuu,US,US,1490900133,0,0,85977539,Mount Morris Park W  & W 124th St,85865555,110/891/382/9/1108913829.geojson,intersection,85688543,mapzen,,,US
"-73.9769051076,40.7757884476,-73.9733266854,40.7783578584",uuuu,85633793,,776ef2eeeaab01730c0c6423c6958820,,9ffb671122d2adfe1a3ba6bf06f4cefd,40.776957,-73.975199,1108914855,uuuu,US,US,1490900133,0,0,85977539,Central Park W  & W 73rd St,420529187,110/891/485/5/1108914855.geojson,intersection,85688543,mapzen,,,US
"-74.0010527271,40.7078371014,-73.9998195152,40.7091708079",uuuu,85633793,,949d9484b4c4aacab6278e901b363edc,,fd75763c38b716af5ac19f66fc57646d,40.708447,-74.000395,1108914857,uuuu,US,US,1490900133,0,0,85977539,Dover St  & Front St,907215463,110/891/485/7/1108914857.geojson,intersection,85688543,mapzen,,,US
"-73.9931473944,40.7101155928,-73.9909459462,40.7118293792",uuuu,85633793,,8e204fcdc1014c4b976b5564db6a549b,,2711b234a711fb0cf1a33ee038dcfae5,40.710894,-73.99199,1108914853,uuuu,US,US,1490900133,0,0,85977539,Cherry St  & Pike Slip,85831563,110/891/485/3/1108914853.geojson,intersection,85688543,mapzen,,,US
"-74.007390122,40.7161384819,-74.0063008616,40.7172004099",uuuu,85633793,,8618876f04d5f792f16a2603da2754de,,8dba908eeefaf2a2fcb745826d6eda8c,40.716658,-74.006838,1108914851,uuuu,US,US,1490900133,0,0,85977539,Thomas St  & Church St,85865713,110/891/485/1/1108914851.geojson,intersection,85688543,mapzen,,,US
"-74.0098521495,40.7383910493,-74.0088522282,40.7391431712",uuuu,85633793,,f0a05810e5d990778ae373a591ce9a36,,443c022b2596ce395a42c3375e153222,40.73876,-74.00932,1108914859,uuuu,US,US,1490900133,0,0,85977539,Horatio St  & West St,85856577,110/891/485/9/1108914859.geojson,intersection,85688543,mapzen,,,US
"-74.021905846,40.7086369083,-74.015857972,40.7122720542",uuuu,85633793,,1897f2e077445f164bc7e97772b4b96e,,674043d1a1a2aa5aa1abc716bd2f4b42,40.71021,-74.018402,1108913215,uuuu,US,US,1490900133,0,0,85977539,Rector Pl  & S End Ave,85804741,110/891/321/5/1108913215.geojson,intersection,85688543,mapzen,,,US
"-73.9604281822,40.8146461836,-73.9590256624,40.8163089567",uuuu,85633793,,db8b61a7036aca197b573f1d3ce4a947,,f2fc90cb88693d1216449047b38dc6b9,40.815476,-73.959687,1108913217,uuuu,US,US,1490900133,0,0,85977539,Claremont Ave  & Tiemann Pl,85869509,110/891/321/7/1108913217.geojson,intersection,85688543,mapzen,,,US
"-74.0010686594,40.7179805654,-73.9999843912,40.7190051698",uuuu,85633793,,238abd49226bdf59c092958b53ee5be1,,c3fd760eabd7e5c8a7979d4f54417758,40.718523,-74.000517,1108913213,uuuu,US,US,1490900133,0,0,85977539,Lafayette St  & Canal St,85865687,110/891/321/3/1108913213.geojson,intersection,85688543,mapzen,,,US
"-73.9528715624,40.8236594345,-73.9507742388,40.8253001761",uuuu,85633793,,a81077df4c9cb2953643c10f7e250c32,,f3ec13a7d888eb3ef801093656423ca4,40.824484,-73.951818,1108913219,uuuu,US,US,1490900133,0,0,85977539,W 142nd St  & Broadway,85869313,110/891/321/9/1108913219.geojson,intersection,85688543,mapzen,,,US
"-74.0052454419,40.7520670557,-74.0020964108,40.754954417",uuuu,85633793,,5c28d9abc7861a3e850cbe5d2541b8e1,,bb0df94f1c45dc0a78a22beec64db17d,40.753582,-74.00364,1108911045,uuuu,US,US,1490900133,0,0,85977539,11th Ave  & W 30th St,907138579,110/891/104/5/1108911045.geojson,intersection,85688543,mapzen,,,US
"-73.9528149987,40.8262561019,-73.9511953651,40.828465478",uuuu,85633793,,efdc40970b5e4337981bbfc54b0d04e7,,598dc201609cdb30848ab40ccbeafb77,40.82723,-73.952091,1108911047,uuuu,US,US,1490900133,0,0,85977539,W 145th St  & Riverside Dr,85869313,110/891/104/7/1108911047.geojson,intersection,85688543,mapzen,,,US
"-73.9395621259,40.8217392985,-73.9364026785,40.8245524548",uuuu,85633793,,e39c9eb388022293f4acfc8b7bbdebfb,,513ba1f6c8e29ae9cf0fbc8a035ee76c,40.823224,-73.937913,1108911043,uuuu,US,US,1490900133,0,0,85977539,7th Ave  & W 147th St,85865555,110/891/104/3/1108911043.geojson,intersection,85688543,mapzen,,,US
"-73.9801788963,40.7836922963,-73.9785796763,40.7851833383",uuuu,85633793,,222a0335601476f197abc555705167f0,,8bd4370c7cc14545b26cd8745fb34014,40.784441,-73.979385,1108911041,uuuu,US,US,1490900133,0,0,85977539,Broadway  & W 80th St,85853285,110/891/104/1/1108911041.geojson,intersection,85688543,mapzen,,,US
"-74.0017997096,40.7347370215,-74.0009277915,40.735451764",uuuu,85633793,,8de9ecd407190f36fecc321800231e4f,,abc2f0235ec68c1e23870bcd642adebd,40.735116,-74.001371,1108911049,uuuu,US,US,1490900133,0,0,85977539,Waverly Pl  & Charles St,85856577,110/891/104/9/1108911049.geojson,intersection,85688543,mapzen,,,US
"-73.9861448286,40.717459108,-73.9851359154,40.718619478",uuuu,85633793,,4e92f153f9c067d0c9ff2d639adbdbba,,a0d36aad28ce1d656871d9c124369fc0,40.718092,-73.985635,1108913325,uuuu,US,US,1490900133,0,0,85977539,Clinton St  & Delancey St,85831563,110/891/332/5/1108913325.geojson,intersection,85688543,mapzen,,,US
"-74.0093983485,40.7107593027,-74.0079803088,40.7121990235",uuuu,85633793,,c63ad9620b80efc8a4c08e1c17bc3fa5,,f1e479304f43414200a457d9cbab8005,40.711506,-74.008698,1108913327,uuuu,US,US,1490900133,0,0,85977539,Ann St  & Broadway,85865713,110/891/332/7/1108913327.geojson,intersection,85688543,mapzen,,,US
"-73.9846318501,40.7365683155,-73.9829194188,40.7382023274",uuuu,85633793,,8e092348ed3fc96a19d217242f42811e,,80a767a3667b71de78afd26815ffc134,40.737361,-73.983798,1108913323,uuuu,US,US,1490900134,0,0,85977539,3rd Ave  & E 21st St,85865705,110/891/332/3/1108913323.geojson,intersection,85688543,mapzen,,,US
"-73.9804940082,40.7129150127,-73.9793996297,40.714699779",uuuu,85633793,,54baf80dde89dee4455c50b6c7edfa9e,,172d61bf494269f7b4dce2126cfe79dd,40.71396,-73.979969,1108913321,uuuu,US,US,1490900134,0,0,85977539,Grand St  & Lewis St,85831563,110/891/332/1/1108913321.geojson,intersection,85688543,mapzen,,,US
"-73.9325464522,40.8578106507,-73.931200516,40.8592681669",uuuu,85633793,,7f1f0ab21c8b5e1c6e1a7d8d52b12288,,8c9c12469834c32d0cf03adfec5ad6b8,40.858526,-73.931899,1108913329,uuuu,US,US,1490900134,0,0,85977539,Broadway  & W 193rd St,907212535,110/891/332/9/1108913329.geojson,intersection,85688543,mapzen,,,US
"-73.9758242954,40.7548473318,-73.9744686199,40.7559010008",uuuu,85633793,,627f44f5ca3ab8d20065db998b5dc3c9,,8318c9fadd4893679c278cfb9e961c1b,40.755274,-73.975221,1108910845,uuuu,US,US,1490900134,0,0,85977539,E 47th St  & Park Ave,907215785,110/891/084/5/1108910845.geojson,intersection,85688543,mapzen,,,US
"-73.9606419718,40.8172355449,-73.9597524517,40.8180824365",uuuu,85633793,,ac1a810bf703d9c944e160b29c7fd099,,c8ece607d46314e7945aa2b5dfff1fc8,40.817676,-73.960218,1108910847,uuuu,US,US,1490900134,0,0,85977539,W 125th St  & Riverside Dr,85869313,110/891/084/7/1108910847.geojson,intersection,85688543,mapzen,,,US
"-73.9804976918,40.7799997628,-73.9783045746,40.7819582007",uuuu,85633793,,f3a98a6d4fbc26040f1e3c9ea8d2083b,,d859ec1fb004592ca9ab777951e75b8f,40.780972,-73.979428,1108910843,uuuu,US,US,1490900134,0,0,85977539,Amsterdam Ave  & W 76th St,85853285,110/891/084/3/1108910843.geojson,intersection,85688543,mapzen,,,US
"-73.9488076153,40.8331419022,-73.9465732923,40.8354632151",uuuu,85633793,,bf49f94d84ac74ee9742fdcc08430e8d,,020997c86dbe2f28fd9b2305d59c977a,40.834375,-73.947632,1108910841,uuuu,US,US,1490900134,0,0,85977539,W 156th St  & Riverside Dr,85854625,110/891/084/1/1108910841.geojson,intersection,85688543,mapzen,,,US
"-73.9298828953,40.8548308028,-73.9283901656,40.8561395425",uuuu,85633793,,942a4360facbe5f496af0cd9f495c009,,6400d09f127d7355063103d19130abbe,40.855506,-73.929125,1108910849,uuuu,US,US,1490900134,0,0,85977539,St Nicholas Ave  & W 191st St,907212535,110/891/084/9/1108910849.geojson,intersection,85688543,mapzen,,,US
"-73.9570123701,40.8149262364,-73.9555601843,40.8166355887",uuuu,85633793,,a8d40092ea93add879d7759c206f4ce0,,c9147b7c0609049d9891c30ccc1ac1a8,40.815845,-73.956297,1108913755,uuuu,US,US,1490900134,0,0,85977539,W 129th St  & Old Broadway,85869313,110/891/375/5/1108913755.geojson,intersection,85688543,mapzen,,,US
"-74.0025897617,40.7355017178,-74.0016450019,40.7361266333",uuuu,85633793,,0a69675322000980dc17632584cc598e,,cf9d3da6204f35b6c9c34a11fa2be95f,40.735795,-74.002095,1108913757,uuuu,US,US,1490900134,0,0,85977539,Waverly Pl  & Perry St,85856577,110/891/375/7/1108913757.geojson,intersection,85688543,mapzen,,,US
"-73.9623263701,40.755238381,-73.9593250946,40.7577028525",uuuu,85633793,,1d54e2c623b9067667e27290b1560a6d,,59cad24c1ea2fd4aee7959f37475e84e,40.75646,-73.960827,1108913753,uuuu,US,US,1490900134,0,0,85977539,E 56th St  & Sutton Pl S,907215745,110/891/375/3/1108913753.geojson,intersection,85688543,mapzen,,,US
"-73.9810261227,40.7381348039,-73.9790480803,40.7400065852",uuuu,85633793,,3007ee02627fe6af9f4628675e77b64b,,7fc477b9d0f7503723020a2ce35d8135,40.739111,-73.979921,1108913759,uuuu,US,US,1490900134,0,0,85977539,2nd Ave  & E 25th St,907189665,110/891/375/9/1108913759.geojson,intersection,85688543,mapzen,,,US
"-73.9850648367,40.7195086952,-73.9838742749,40.7210021473",uuuu,85633793,,165f42cb103c4f5920ba3dcdefce1a41,,2f2aad3a649fe843aef84e9be62d9ae8,40.72026,-73.98447,1108912605,uuuu,US,US,1490900134,0,0,85977539,Clinton St  & Stanton St,85831563,110/891/260/5/1108912605.geojson,intersection,85688543,mapzen,,,US
"-73.962829857,40.8114514875,-73.9614030499,40.8136972426",uuuu,85633793,,5b39a5c4c416d64b6b49f6f5f3c79c20,,096241da749ae944814bd61a7e1bb125,40.81248,-73.962046,1108912607,uuuu,US,US,1490900134,0,0,85977539,Claremont Ave  & W 122nd St,85869509,110/891/260/7/1108912607.geojson,intersection,85688543,mapzen,,,US
"-73.9721981608,40.7872291861,-73.969330557,40.7896206805",uuuu,85633793,,ac943101db1c69b44e1457b338ce7b14,,e36afa00fea702bedf21f90907e0b113,40.788425,-73.970765,1108912603,uuuu,US,US,1490900134,0,0,85977539,Columbus Ave  & W 89th St,85853285,110/891/260/3/1108912603.geojson,intersection,85688543,mapzen,,,US
"-73.9488785431,40.7986731959,-73.9460743223,40.801308161",uuuu,85633793,,56f63880d3fd7ec8ef9fee292f2b90df,,5f77fd679ee4437c9b710ac5e6d5c104,40.799903,-73.947476,1108912601,uuuu,US,US,1490900134,0,0,85977539,E 115th St  & W 115th St,85865689,110/891/260/1/1108912601.geojson,intersection,85688543,mapzen,,,US
"-73.9277468077,40.8518656518,-73.9211486782,40.8550072341",uuuu,85633793,,32be4126fbd4e77984beb0bafcf991b2,,1e47fd5c247883200bbe5eb7b789f64a,40.853354,-73.925046,1108912609,uuuu,US,US,1490900134,0,0,85977539,Amsterdam Ave  & W 190th St,907212535,110/891/260/9/1108912609.geojson,intersection,85688543,mapzen,,,US
"-73.9909874313,40.7136234824,-73.9897383131,40.7142514613",uuuu,85633793,,cd1dbd5997a973aaac52791d1a5824db,,10429d23a48771ced5c58ee848b1b17b,40.71394,-73.990303,1108912425,uuuu,US,US,1490900134,0,0,85977539,E Broadway  & Rutgers St,85810885,110/891/242/5/1108912425.geojson,intersection,85688543,mapzen,,,US
"-73.9451446895,40.814089097,-73.9422526115,40.8165183446",uuuu,85633793,,92a8e0887bec1faf346dbe227093009f,,da0c58a0856462ef0bd7aaeafdc9044c,40.815304,-73.943698,1108912427,uuuu,US,US,1490900134,0,0,85977539,W 135th St  & Adam Clayton Powell Jr Blvd,85865555,110/891/242/7/1108912427.geojson,intersection,85688543,mapzen,,,US
"-73.986287744,40.7138287733,-73.9850026357,40.715088003",uuuu,85633793,,f5ae6cbb8c094f4ce391dcd5dc47daa7,,11f6b821e337e3488426077d6bdaae21,40.714485,-73.985662,1108912423,uuuu,US,US,1490900134,0,0,85977539,E Broadway  & Montgomery St,85831563,110/891/242/3/1108912423.geojson,intersection,85688543,mapzen,,,US
"-73.9404374807,40.8100554579,-73.9378247514,40.8121002113",uuuu,85633793,,285540a6bf8656db21caf066d4dd0207,,71fb8c3ff6361ceaa768a8bc905cad08,40.811166,-73.938941,1108912421,uuuu,US,US,1490900134,0,0,85977539,5th Ave  & E 132nd St,85865689,110/891/242/1/1108912421.geojson,intersection,85688543,mapzen,,,US
"-73.9313768891,40.8503955548,-73.9298665512,40.8518507531",uuuu,85633793,,dd70e4182a3d79f0b1e179e1cbceea57,,5f8117fdcabb32b23e78b3f709a0a010,40.85113,-73.930596,1108912429,uuuu,US,US,1490900134,0,0,85977539,Audubon Ave  & W 185th St,907212535,110/891/242/9/1108912429.geojson,intersection,85688543,mapzen,,,US
"-73.9351731348,40.8155458375,-73.9083525,40.8218843486",uuuu,85633793,,7e0dbc4ac0994d3db25382abf6b8c0fe,,8fa21880690fc368131493cf6155d5ad,40.818287,-73.919276,1108911805,uuuu,US,US,1490900134,0,0,85977539,5th Ave  & W 143rd St,85865555,110/891/180/5/1108911805.geojson,intersection,85688543,mapzen,,,US
"-73.9396705822,40.7694267728,-73.9089402548,40.7887991939",uuuu,85633793,,10d9f52fe0be839a26670ffe7b7bed3e,,0be6d746e68d791a160438026efa6566,40.778955,-73.924555,1108911803,uuuu,US,US,1490900134,0,0,85977539,F D R Dr  & E 105th St,85865689,110/891/180/3/1108911803.geojson,intersection,85688543,mapzen,,,US
"-74.0133185984,40.684656,-73.9880467438,40.6948584186",uuuu,85633793,,d9004d6997cee3c895c3f69946a48622,,8e89a5e947b819c2210bd32d599db416,40.688827,-74.001694,1108911801,uuuu,US,US,1490900134,0,0,85977539,Kimmel Rd  & Andes Rd,907131741,110/891/180/1/1108911801.geojson,intersection,85688543,mapzen,,,US
"-74.008527062,40.7164567111,-74.0072384083,40.7177786706",uuuu,85633793,,2ce185126a27906591ab112267cc65ca,,a8278daf2540ee233b5e1f1f5f30d3f5,40.717096,-74.007911,1108911809,uuuu,US,US,1490900134,0,0,85977539,Thomas St  & W Broadway,85865713,110/891/180/9/1108911809.geojson,intersection,85688543,mapzen,,,US
"-73.9996407152,40.755042741,-73.9972997043,40.7570541795",uuuu,85633793,,5a6bea3af337b2e89ea4e5bdacb768e2,,9a9ce77e98089bd3ba0cf0aee63ac9e6,40.756043,-73.998449,1108914285,uuuu,US,US,1490900134,0,0,85977539,W 36th St  & 10th Ave,85868039,110/891/428/5/1108914285.geojson,intersection,85688543,mapzen,,,US
"-74.015835687,40.70702851,-74.0147169639,40.7081372392",uuuu,85633793,,7f67804221c02765d454e265a782f814,,504256d7f7cb0b8c10bef1d047494865,40.707537,-74.015279,1108914287,uuuu,US,US,1490900134,0,0,85977539,West St  & Joseph P Ward St,85804741,110/891/428/7/1108914287.geojson,intersection,85688543,mapzen,,,US
"-73.9407839366,40.8270768759,-73.9390861672,40.8285099537",uuuu,85633793,,0326b787a57e774f0f8a3a32fa7681e8,,80a61630ad2b1b52a91dd4dd1f182342,40.827792,-73.939887,1108914283,uuuu,US,US,1490900134,0,0,85977539,Bradhurst Ave  & W 152nd St,85865555,110/891/428/3/1108914283.geojson,intersection,85688543,mapzen,,,US
"-73.9354783779,40.8447620724,-73.9338790881,40.8462342194",uuuu,85633793,,b25527a4060e2ac6b20cfb8ccc1e1930,,fe73f0050f957d0127cd9dc2ba041b4d,40.845496,-73.934681,1108914281,uuuu,US,US,1490900134,0,0,85977539,W 176th St  & Audubon Ave,85854625,110/891/428/1/1108914281.geojson,intersection,85688543,mapzen,,,US
"-73.9497074371,40.8026448222,-73.9467501533,40.8051517878",uuuu,85633793,,85f0a0c05083abd62906ef339690f14d,,d9b7ed9ed2f2dc31ab4281c9424511db,40.803903,-73.948199,1108914289,uuuu,US,US,1490900134,0,0,85977539,W 119th St  & Malcolm X Blvd,85865555,110/891/428/9/1108914289.geojson,intersection,85688543,mapzen,,,US
"-73.9873410248,40.7187995453,-73.9861644294,40.7203064397",uuuu,85633793,,ed5095596f4f782cba14064c8a8726de,,8aa0b6b3fc87e5be59506477d9fa9b97,40.71955,-73.986752,1108913705,uuuu,US,US,1490900134,0,0,85977539,Rivington St  & Norfolk St,85831563,110/891/370/5/1108913705.geojson,intersection,85688543,mapzen,,,US
"-73.962305778,40.8164167389,-73.961096735,40.8184448702",uuuu,85633793,,a506fbb8b87bdbf654128dd6dc6d3a34,,d589f1157e8abce43d9ae545936e5593,40.817407,-73.961699,1108913707,uuuu,US,US,1490900134,0,0,85977539,Henry Hudson Pkwy  & St Clair Pl,85869509,110/891/370/7/1108913707.geojson,intersection,85688543,mapzen,,,US
"-73.9401269486,40.8068670718,-73.9383675557,40.8084431663",uuuu,85633793,,af3f2c6f845a8923ce86b53595416b22,,6c801146d51d57a1f6af156250cf3e6f,40.807656,-73.939247,1108913703,uuuu,US,US,1490900134,0,0,85977539,E 128th St  & Madison Ave,85865689,110/891/370/3/1108913703.geojson,intersection,85688543,mapzen,,,US
"-73.9450974611,40.8371796407,-73.943160762,40.8384957058",uuuu,85633793,,d2a786487a1a721c2c54692f680106df,,b4a47086d7673f1573545c920944796d,40.837825,-73.944133,1108913701,uuuu,US,US,1490900134,0,0,85977539,Fort Washington Ave  & W 162nd St,85854625,110/891/370/1/1108913701.geojson,intersection,85688543,mapzen,,,US
"-73.9931241129,40.757888663,-73.9907045961,40.7602936459",uuuu,85633793,,7e309b0dc86f4236ef2d5c7f74e3dd1e,,17b1333038015a9786b6c8de5ab95882,40.759008,-73.992006,1108913709,uuuu,US,US,1490900134,0,0,85977539,9th Ave  & W 43rd St,85882233,110/891/370/9/1108913709.geojson,intersection,85688543,mapzen,,,US
"-73.9744526442,40.7429232018,-73.9727296753,40.7446225598",uuuu,85633793,,af9857103e547e9f61d1ee6691c2f48d,,67ed2f504c7170b3bf613f05c15929dc,40.743809,-73.973575,1108911595,uuuu,US,US,1490900134,0,0,85977539,1st Ave  & E 34th St,907189665,110/891/159/5/1108911595.geojson,intersection,85688543,mapzen,,,US
"-73.9763895639,40.7913416608,-73.974735673,40.7928206825",uuuu,85633793,,fc973e3618fb3c0add05c23e43b29255,,4638cc8a555c8ccff64b72f3ae894b44,40.792083,-73.975556,1108911597,uuuu,US,US,1490900134,0,0,85977539,W End Ave  & W 91st St,85853285,110/891/159/7/1108911597.geojson,intersection,85688543,mapzen,,,US
"-73.9754809682,40.735842124,-73.971314698,40.7387969122",uuuu,85633793,,d60b3ee2edb264a76676ce49dbdcf8ea,,7014fdca6c44d4711dc8057203c0fa75,40.737134,-73.973653,1108911593,uuuu,US,US,1490900134,0,0,85977539,F D R Dr  & E 26th St,907189665,110/891/159/3/1108911593.geojson,intersection,85688543,mapzen,,,US
"-74.017224168,40.6877694891,-74.0155358929,40.6887222864",uuuu,85633793,,9167f94c675cf3d11fd57861fc30f6fd,,b0bf20e5aac6bc0390f5e40dee277923,40.688288,-74.016423,1108911599,uuuu,US,US,1490900134,0,0,85977539,Comfort Rd  & Clayton Rd,907131741,110/891/159/9/1108911599.geojson,intersection,85688543,mapzen,,,US
"-73.9399264037,40.8042442539,-73.9381405491,40.805865454",uuuu,85633793,,f1e605febd4265d7588811372df7407b,,828ef5946738cfda90f7d4ffdcd106c7,40.805055,-73.939034,1108910405,uuuu,US,US,1490900134,0,0,85977539,Dr Martin Luther King Jr Blvd  & Park Ave,85865689,110/891/040/5/1108910405.geojson,intersection,85688543,mapzen,,,US
"-74.0103784351,40.7376505534,-74.008900839,40.7384514071",uuuu,85633793,,606597314f0f9ab38ba45a9944487d7c,,f35cc7814547036dffd782663fa031e1,40.738097,-74.009482,1108910407,uuuu,US,US,1490900134,0,0,85977539,Jane St  & West St,85856577,110/891/040/7/1108910407.geojson,intersection,85688543,mapzen,,,US
"-74.0119604504,40.765187309,-73.9975377984,40.7762341428",uuuu,0,,4b860b26474f0e4d6b279bf79215e595,,08d1390b8c3e816618e21c226bc71a49,40.769747,-74.003762,1108910401,uuuu,US,US,1490900134,0,0,0,Lincoln Hwy  & W 48th St,-1,110/891/040/1/1108910401.geojson,intersection,0,mapzen,,,US
"-73.9342585044,40.8023987634,-73.9319296149,40.8043737141",uuuu,85633793,,3345ae78d0f77f587e84a75f8d936eb4,,b8819612540bd162b4ad1f8b5cfbf3cc,40.803395,-73.93307,1108910409,uuuu,US,US,1490900134,0,0,85977539,2nd Ave  & E 126th St,85865689,110/891/040/9/1108910409.geojson,intersection,85688543,mapzen,,,US
"-73.9980251049,40.7305782335,-73.9962083757,40.7321501285",uuuu,85633793,,c69281faf934af557d38923019de1c1c,,c8f311b2bfa530e4c3848860d63b3ec3,40.731291,-73.997161,1108911695,uuuu,US,US,1490900134,0,0,85977539,5th Ave  & Washington Sq N,420529189,110/891/169/5/1108911695.geojson,intersection,85688543,mapzen,,,US
"-74.0109851207,40.7114196443,-74.0092623159,40.7127920059",uuuu,85633793,,6b5d166463561efae0901f9fa686bc6a,,afa186673f3b734aec968c7fc3d28af2,40.712111,-74.010111,1108911697,uuuu,US,US,1490900134,0,0,85977539,Church St  & Vesey St,85865713,110/891/169/7/1108911697.geojson,intersection,85688543,mapzen,,,US
"-73.9724345852,40.7364993062,-73.9590917448,40.744474779",uuuu,85633793,,0c08b878adaf91e266ce76556a72f3cf,,630e73d8375ad51c48da35f9e79eef9c,40.740824,-73.966514,1108911693,uuuu,US,US,1490900134,0,0,85977539,F D R Dr  & E 35th St,85836095,110/891/169/3/1108911693.geojson,intersection,85688543,mapzen,,,US
"-73.9840148924,40.7767758367,-73.9822106714,40.7785136422",uuuu,85633793,,f86b2d2d714cc5bec94ba9d1602b8e86,,c8de6ca7adc46a01ce65bbbc6c2ec4b9,40.777667,-73.983081,1108911691,uuuu,US,US,1490900134,0,0,85977539,Amsterdam Ave  & W 70th St,85853285,110/891/169/1/1108911691.geojson,intersection,85688543,mapzen,,,US
"-73.912001632,40.8690685323,-73.9083525,40.8729474456",uuuu,85633793,,c040b0699f7f928ac04dd4ca8ab8a720,,5a9277afcbf9bc5a6c1c99470d275451,40.871324,-73.909791,1108911305,uuuu,US,US,1490900135,0,0,85977539,9th Ave  & W 220th St,85826989,110/891/130/5/1108911305.geojson,intersection,85688543,mapzen,,,US
"-73.9401188264,40.852799776,-73.937768666,40.854286382",uuuu,85633793,,9b072005b54a09ac4750619e8d39c184,,d4cf25be8da21fb82e9639b3577b0484,40.85354,-73.938697,1108911307,uuuu,US,US,1490900135,0,0,85977539,Pinehurst Ave  & W 185th St,907214331,110/891/130/7/1108911307.geojson,intersection,85688543,mapzen,,,US
"-73.9889969586,40.7420901038,-73.9877677276,40.7433451624",uuuu,85633793,,33615582cb494687bdfdc81cf71e816f,,cc95bfae037495cb6463d275795d8c15,40.742693,-73.988393,1108911301,uuuu,US,US,1490900135,0,0,85977539,W 25th St  & 5th Ave,85869245,110/891/130/1/1108911301.geojson,intersection,85688543,mapzen,,,US
"-73.9831598762,40.7450109195,-73.9813950875,40.7465797494",uuuu,0,,869766b8b825f2c49c86c632a6e776bf,,6785fa8992b07a9ede12f97261b95785,40.745796,-73.982277,1108911309,uuuu,US,US,1490900135,0,0,0,E 32nd St  & Park Ave S,-1,110/891/130/9/1108911309.geojson,intersection,0,mapzen,,,US
"-73.9530105096,40.8159087746,-73.9506107847,40.818046187",uuuu,85633793,,34a11d59176a5e0ef0be15c276b490b1,,6b671cc6fcb312018f0c69502b717a7d,40.81693,-73.951782,1108912335,uuuu,US,US,1490900135,0,0,85977539,W 133rd St  & Convent Ave,85869313,110/891/233/5/1108912335.geojson,intersection,85688543,mapzen,,,US
"-74.0137189439,40.7145885321,-74.0122402503,40.7156916661",uuuu,85633793,,12199aff28f7f8820278350a8337c395,,c1f7631951425c1540b859b44da4cbdc,40.715094,-74.012801,1108912337,uuuu,US,US,1490900135,0,0,85977539,West St  & Park Pl,85865713,110/891/233/7/1108912337.geojson,intersection,85688543,mapzen,,,US
"-73.9834210823,40.7514144241,-73.9809485385,40.7535120006",uuuu,85633793,,c3e0806f6a8fac07cb1c61d57708e718,,48ef09030ee5391b1eefa413b7677028,40.752449,-73.982169,1108912333,uuuu,US,US,1490900135,0,0,85977539,E 40th St  & W 40th St,85882233,110/891/233/3/1108912333.geojson,intersection,85688543,mapzen,,,US
"-73.9750186538,40.7293519462,-73.9535600165,40.7344714751",uuuu,85633793,,dd661650b9dde84f33d61e899a395f1a,,a1b4ecb901f039bd7b249f4462879d3a,40.732245,-73.965564,1108912331,uuuu,US,US,1490900135,0,0,85977539,Ave C  & Stuyvesant Loop E,85851295,110/891/233/1/1108912331.geojson,intersection,85688543,mapzen,,,US
"-74.009762267,40.7300003964,-74.0086042382,40.7309278075",uuuu,85633793,,f0123e1fb9ce858094f58dbab7af3457,,345d17655e7884b266de0dc9a03c2eaf,40.730458,-74.009188,1108912339,uuuu,US,US,1490900135,0,0,85977539,Washington St  & Leroy St,85856577,110/891/233/9/1108912339.geojson,intersection,85688543,mapzen,,,US
"-73.9597041621,40.8098886365,-73.9572968872,40.8118263492",uuuu,85633793,,001fde7644536cd4868ef41a4d02bec1,,74cd71b2a91572a31b6adb1bd0cb4333,40.810835,-73.958539,1108912755,uuuu,US,US,1490900135,0,0,85977539,Morningside Dr  & W 122nd St,85869509,110/891/275/5/1108912755.geojson,intersection,85688543,mapzen,,,US
"-73.9647449425,40.7953560461,-73.9625423259,40.7969379258",uuuu,85633793,,53202f17d204f997d68b9323e6019774,,5c26d15c2995518cf264734058c00fce,40.796212,-73.963548,1108912757,uuuu,US,US,1490900135,0,0,85977539,Manhattan Ave  & W 102nd St,907214381,110/891/275/7/1108912757.geojson,intersection,85688543,mapzen,,,US
